{"GRANT_LOSSES": [{"org_name": "University of Texas Medical Branch Galveston", "lat": 29.311028, "lon": -94.778007, "terminated_loss": 39413784.43, "terminated_num": 4, "terminated_loss_noself": 39413784.43, "terminated_num_noself": 4}, {"org_name": "University of Texas MD Anderson Cancer Center", "lat": 29.706319, "lon": -95.397195, "terminated_loss": 980196.88, "terminated_num": 2, "terminated_loss_noself": 980196.88, "terminated_num_noself": 2}, {"org_name": "Florida A&M University", "lat": 30.428914, "lon": -84.289766, "terminated_loss": 7522924.78, "terminated_num": 1, "terminated_loss_noself": 7522924.78, "terminated_num_noself": 1}, {"org_name": "University of Texas Southwestern Medical Center", "lat": 32.811963, "lon": -96.837534, "terminated_loss": 10783585.03, "terminated_num": 11, "terminated_loss_noself": 10783585.03, "terminated_num_noself": 11}, {"org_name": "Clark Atlanta University", "lat": 33.747725, "lon": -84.41301, "terminated_loss": 692149.99, "terminated_num": 2, "terminated_loss_noself": 692149.99, "terminated_num_noself": 2}, {"org_name": "Charles R. Drew University of Medicine & Science", "lat": 33.923952, "lon": -118.245687, "terminated_loss": 36645147.03, "terminated_num": 3, "terminated_loss_noself": 36645147.03, "terminated_num_noself": 2}, {"org_name": "California Polytechnic State University, San Luis Obispo", "lat": 35.299317, "lon": -120.656618, "terminated_loss": 141318.58, "terminated_num": 1, "terminated_loss_noself": 141318.58, "terminated_num_noself": 1}, {"org_name": "Wake Forest University Health Sciences", "lat": 36.059402, "lon": -80.321981, "terminated_loss": 5324474.19, "terminated_num": 8, "terminated_loss_noself": 5324474.19, "terminated_num_noself": 8}, {"org_name": "Virginia Polytechnic Institute and State University", "lat": 37.233061, "lon": -80.421005, "terminated_loss": 8047583.15, "terminated_num": 10, "terminated_loss_noself": 8047583.15, "terminated_num_noself": 9}, {"org_name": "WETA TV 26", "lat": 38.84087, "lon": -77.086486, "terminated_loss": 65168.7, "terminated_num": 1, "terminated_loss_noself": 65168.7, "terminated_num_noself": 1}, {"org_name": "Indiana University", "lat": 39.172055, "lon": -86.523157, "terminated_loss": 46838.33, "terminated_num": 1, "terminated_loss_noself": 46838.33, "terminated_num_noself": 1}, {"org_name": "Rutgers, Camden", "lat": 39.947479, "lon": -75.123053, "terminated_loss": 175866.65, "terminated_num": 1, "terminated_loss_noself": 175866.65, "terminated_num_noself": 1}, {"org_name": "The Research Institute at Nationwide Children's Hospital", "lat": 39.95251, "lon": -82.979302, "terminated_loss": 1007060.08, "terminated_num": 1, "terminated_loss_noself": 1007060.08, "terminated_num_noself": 1}, {"org_name": "Rutgers, Newark", "lat": 40.740542, "lon": -74.172677, "terminated_loss": 149742.31, "terminated_num": 1, "terminated_loss_noself": 149742.31, "terminated_num_noself": 1}, {"org_name": "NDRI-USA, Inc.", "lat": 40.74287, "lon": -73.992333, "terminated_loss": 307958.83, "terminated_num": 1, "terminated_loss_noself": 307958.83, "terminated_num_noself": 1}, {"org_name": "Weill Medical College of Cornell University", "lat": 40.7607, "lon": -73.9603, "terminated_loss": 20447310.65, "terminated_num": 5, "terminated_loss_noself": 20447310.65, "terminated_num_noself": 5}, {"org_name": "The Research Foundation for Mental Hygiene, Inc.", "lat": 40.843076, "lon": -73.944206, "terminated_loss": 5439616.88, "terminated_num": 7, "terminated_loss_noself": 5439616.88, "terminated_num_noself": 6}, {"org_name": "Fordham University", "lat": 40.86209, "lon": -73.88639, "terminated_loss": 1493093.94, "terminated_num": 2, "terminated_loss_noself": 1493093.94, "terminated_num_noself": 1}, {"org_name": "Pennsylvania State University", "lat": 40.870717, "lon": -77.83415, "terminated_loss": 5921612.13, "terminated_num": 5, "terminated_loss_noself": 5921612.13, "terminated_num_noself": 5}, {"org_name": "Butler Hospital", "lat": 41.843586, "lon": -71.379656, "terminated_loss": 103572.21, "terminated_num": 1, "terminated_loss_noself": 103572.21, "terminated_num_noself": 1}, {"org_name": "University of Massachusetts Medical School Worcester", "lat": 42.2802, "lon": -71.758245, "terminated_loss": 5065428.05, "terminated_num": 9, "terminated_loss_noself": 4059959.06, "terminated_num_noself": 7}, {"org_name": "Rosalind Franklin University of Medicine & Science", "lat": 42.302294, "lon": -87.861378, "terminated_loss": 476022.61, "terminated_num": 1, "terminated_loss_noself": 476022.61, "terminated_num_noself": 1}, {"org_name": "Function Promoting Therapies, LLC", "lat": 42.33724, "lon": -71.10217, "terminated_loss": 2320466.91, "terminated_num": 1, "terminated_loss_noself": 2320466.91, "terminated_num_noself": 1}, {"org_name": "Henry Ford Health and Michigan State University Health Sciences", "lat": 42.653979, "lon": -84.492032, "terminated_loss": 1607191.09, "terminated_num": 4, "terminated_loss_noself": 1607191.09, "terminated_num_noself": 4}, {"org_name": "Van Andel Research Institute", "lat": 42.969389, "lon": -85.666402, "terminated_loss": 105648.66, "terminated_num": 1, "terminated_loss_noself": 105648.66, "terminated_num_noself": 1}, {"org_name": "Boston University", "lat": 42.33639, "lon": -71.07097, "terminated_loss": 5834931.86, "terminated_num": 11, "terminated_loss_noself": 5834931.86, "terminated_num_noself": 11}, {"org_name": "Tufts University", "lat": 42.3498, "lon": -71.06149, "terminated_loss": 5141893.8, "terminated_num": 6, "terminated_loss_noself": 5141893.8, "terminated_num_noself": 6}, {"org_name": "Columbia University", "lat": 40.8415, "lon": -73.9414, "terminated_loss": 424934751.47, "terminated_num": 182, "terminated_loss_noself": 398317859.49, "terminated_num_noself": 160}, {"org_name": "University of Miami", "lat": 25.713468, "lon": -80.277246, "terminated_loss": 7629301.01, "terminated_num": 19, "terminated_loss_noself": 7629301.01, "terminated_num_noself": 19}, {"org_name": "University of Hawaii at Manoa", "lat": 21.299198, "lon": -157.820371, "terminated_loss": 32659671.25, "terminated_num": 8, "terminated_loss_noself": 32659671.25, "terminated_num_noself": 8}, {"org_name": "Florida International University", "lat": 25.761055, "lon": -80.376195, "terminated_loss": 20171820.57, "terminated_num": 3, "terminated_loss_noself": 20171820.57, "terminated_num_noself": 3}, {"org_name": "Nova Southeastern University", "lat": 26.07761, "lon": -80.242565, "terminated_loss": 58462.98, "terminated_num": 1, "terminated_loss_noself": 58462.98, "terminated_num_noself": 1}, {"org_name": "University of Central Florida", "lat": 28.601027, "lon": -81.197266, "terminated_loss": 3622154.76, "terminated_num": 5, "terminated_loss_noself": 3622154.76, "terminated_num_noself": 5}, {"org_name": "St. Mary's University", "lat": 29.451933, "lon": -98.560605, "terminated_loss": 90808.0699999999, "terminated_num": 1, "terminated_loss_noself": 90808.0699999999, "terminated_num_noself": 1}, {"org_name": "University of Texas San Antonio", "lat": 29.567119, "lon": -98.605723, "terminated_loss": 2977883.12, "terminated_num": 7, "terminated_loss_noself": 2977883.12, "terminated_num_noself": 7}, {"org_name": "University of Florida", "lat": 29.643443, "lon": -82.349637, "terminated_loss": 21617608.11, "terminated_num": 14, "terminated_loss_noself": 21617608.11, "terminated_num_noself": 14}, {"org_name": "Baylor College of Medicine", "lat": 29.70926, "lon": -95.400851, "terminated_loss": 9922042.24, "terminated_num": 14, "terminated_loss_noself": 9894405.33, "terminated_num_noself": 11}, {"org_name": "University of Houston", "lat": 29.718091, "lon": -95.336483, "terminated_loss": 599835.71, "terminated_num": 3, "terminated_loss_noself": 599835.71, "terminated_num_noself": 3}, {"org_name": "Texas State University", "lat": 29.888774, "lon": -97.937445, "terminated_loss": 729745.64, "terminated_num": 2, "terminated_loss_noself": 476085.43, "terminated_num_noself": 1}, {"org_name": "Tulane University of Louisiana", "lat": 29.935429, "lon": -90.12279, "terminated_loss": 7069008.81, "terminated_num": 3, "terminated_loss_noself": 7069008.81, "terminated_num_noself": 3}, {"org_name": "University of Texas at Austin", "lat": 30.291188, "lon": -97.737568, "terminated_loss": 4389177.09, "terminated_num": 5, "terminated_loss_noself": 4389177.09, "terminated_num_noself": 5}, {"org_name": "Louisiana State University A&M College Baton Rouge", "lat": 30.408018, "lon": -91.188669, "terminated_loss": 723101.79, "terminated_num": 4, "terminated_loss_noself": 723101.79, "terminated_num_noself": 4}, {"org_name": "Florida State University", "lat": 30.441455, "lon": -84.297889, "terminated_loss": 10740267.13, "terminated_num": 7, "terminated_loss_noself": 10740267.13, "terminated_num_noself": 7}, {"org_name": "University of Texas El Paso", "lat": 31.770518, "lon": -106.504149, "terminated_loss": 4550390.16, "terminated_num": 4, "terminated_loss_noself": 4550390.16, "terminated_num_noself": 4}, {"org_name": "University of Arizona", "lat": 32.232844, "lon": -110.959467, "terminated_loss": 7698553.14, "terminated_num": 15, "terminated_loss_noself": 6934072.24, "terminated_num_noself": 13}, {"org_name": "University of Mississippi Medical Center", "lat": 32.328724, "lon": -90.175537, "terminated_loss": 1428881.48, "terminated_num": 3, "terminated_loss_noself": 1428881.48, "terminated_num_noself": 3}, {"org_name": "Auburn University at Auburn", "lat": 32.602139, "lon": -85.508496, "terminated_loss": 1041283.02, "terminated_num": 2, "terminated_loss_noself": 1041283.02, "terminated_num_noself": 2}, {"org_name": "University of North Texas Health Science Center", "lat": 32.749542, "lon": -97.36903, "terminated_loss": 12307626.49, "terminated_num": 3, "terminated_loss_noself": 12307626.49, "terminated_num_noself": 2}, {"org_name": "San Diego State University", "lat": 32.762178, "lon": -117.069156, "terminated_loss": 15972706.01, "terminated_num": 12, "terminated_loss_noself": 15756834.89, "terminated_num_noself": 11}, {"org_name": "Medical University of South Carolina", "lat": 32.786754, "lon": -79.947265, "terminated_loss": 2204182.26, "terminated_num": 4, "terminated_loss_noself": 2204182.26, "terminated_num_noself": 4}, {"org_name": "University of California, San Diego", "lat": 32.876991, "lon": -117.24087, "terminated_loss": 59575427.11, "terminated_num": 22, "terminated_loss_noself": 44331020.91, "terminated_num_noself": 21}, {"org_name": "Arizona State University-Tempe Campus", "lat": 33.423954, "lon": -111.940687, "terminated_loss": 3876320.86, "terminated_num": 4, "terminated_loss_noself": 3876320.86, "terminated_num_noself": 3}, {"org_name": "Center for Innovative Public Health Research", "lat": 33.430039, "lon": -117.616549, "terminated_loss": 2610840.0, "terminated_num": 3, "terminated_loss_noself": 2610840.0, "terminated_num_noself": 3}, {"org_name": "Banner Health", "lat": 33.433422, "lon": -112.087594, "terminated_loss": 3886206.27, "terminated_num": 1, "terminated_loss_noself": 3886206.27, "terminated_num_noself": 1}, {"org_name": "University of Alabama at Birmingham", "lat": 33.50591, "lon": -86.799772, "terminated_loss": 18777719.69, "terminated_num": 17, "terminated_loss_noself": 18474042.15, "terminated_num_noself": 16}, {"org_name": "Texas Tech University", "lat": 33.584696, "lon": -101.872767, "terminated_loss": 211114.83, "terminated_num": 1, "terminated_loss_noself": 211114.83, "terminated_num_noself": 1}, {"org_name": "University of California-Irvine", "lat": 33.64852, "lon": -117.82136, "terminated_loss": 6698954.05, "terminated_num": 18, "terminated_loss_noself": 6698954.05, "terminated_num_noself": 16}, {"org_name": "Spelman College", "lat": 33.745247, "lon": -84.411462, "terminated_loss": 4854705.39, "terminated_num": 2, "terminated_loss_noself": 4854705.39, "terminated_num_noself": 1}, {"org_name": "Morehouse School of Medicine", "lat": 33.746607, "lon": -84.414781, "terminated_loss": 4465257.25, "terminated_num": 3, "terminated_loss_noself": 4465257.25, "terminated_num_noself": 3}, {"org_name": "Georgia State University", "lat": 33.753531, "lon": -84.384483, "terminated_loss": 913224.42, "terminated_num": 4, "terminated_loss_noself": 913224.42, "terminated_num_noself": 4}, {"org_name": "Emory University", "lat": 33.791247, "lon": -84.3249, "terminated_loss": 101349051.74, "terminated_num": 28, "terminated_loss_noself": 101349051.74, "terminated_num_noself": 27}, {"org_name": "California State University Fullerton", "lat": 33.8781, "lon": -117.884245, "terminated_loss": 871594.24, "terminated_num": 3, "terminated_loss_noself": 871594.24, "terminated_num_noself": 3}, {"org_name": "University of Georgia", "lat": 33.931173, "lon": -83.378873, "terminated_loss": 3337989.36, "terminated_num": 3, "terminated_loss_noself": 3337989.36, "terminated_num_noself": 3}, {"org_name": "Loyola Marymount University", "lat": 33.969677, "lon": -118.416139, "terminated_loss": 509238.63, "terminated_num": 1, "terminated_loss_noself": 509238.63, "terminated_num_noself": 1}, {"org_name": "University of South Carolina at Columbia", "lat": 33.999623, "lon": -81.028249, "terminated_loss": 13426049.89, "terminated_num": 9, "terminated_loss_noself": 13426049.89, "terminated_num_noself": 9}, {"org_name": "Rand Corporation", "lat": 34.009659, "lon": -118.490943, "terminated_loss": 5016546.96, "terminated_num": 4, "terminated_loss_noself": 5016546.96, "terminated_num_noself": 4}, {"org_name": "University of Southern California", "lat": 34.017282, "lon": -118.281254, "terminated_loss": 5689203.29, "terminated_num": 16, "terminated_loss_noself": 5689203.29, "terminated_num_noself": 15}, {"org_name": "Public Health Foundation Enterprises", "lat": 34.029482, "lon": -118.023269, "terminated_loss": 2201105.02, "terminated_num": 4, "terminated_loss_noself": 2201105.02, "terminated_num_noself": 4}, {"org_name": "Kennesaw State University", "lat": 34.034315, "lon": -84.574275, "terminated_loss": 696259.68, "terminated_num": 2, "terminated_loss_noself": 696259.68, "terminated_num_noself": 2}, {"org_name": "University of California Los Angeles", "lat": 34.070199, "lon": -118.45102, "terminated_loss": 82712561.3, "terminated_num": 17, "terminated_loss_noself": 82712561.3, "terminated_num_noself": 17}, {"org_name": "Children's Hospital of Los Angeles", "lat": 34.098065, "lon": -118.29069, "terminated_loss": 12656383.83, "terminated_num": 1, "terminated_loss_noself": 12656383.83, "terminated_num_noself": 1}, {"org_name": "California State University Northridge", "lat": 34.245875, "lon": -118.501885, "terminated_loss": 701152.53, "terminated_num": 1, "terminated_loss_noself": 701152.53, "terminated_num_noself": 1}, {"org_name": "University of Mississippi", "lat": 34.36739, "lon": -89.528956, "terminated_loss": 311280.69, "terminated_num": 3, "terminated_loss_noself": 311280.69, "terminated_num_noself": 2}, {"org_name": "University of California Santa Barbara", "lat": 34.431306, "lon": -119.834277, "terminated_loss": 443044.99, "terminated_num": 2, "terminated_loss_noself": 443044.99, "terminated_num_noself": 2}, {"org_name": "University of North Carolina at Pembroke", "lat": 34.694134, "lon": -79.198114, "terminated_loss": 99597.85, "terminated_num": 1, "terminated_loss_noself": 99597.85, "terminated_num_noself": 1}, {"org_name": "University of Arkansas for Medical Sciences", "lat": 34.749005, "lon": -92.320097, "terminated_loss": 3810630.68, "terminated_num": 4, "terminated_loss_noself": 3810630.68, "terminated_num_noself": 4}, {"org_name": "University of Tennessee Chattanooga", "lat": 35.045822, "lon": -85.299815, "terminated_loss": 224753.34, "terminated_num": 1, "terminated_loss_noself": 224753.34, "terminated_num_noself": 1}, {"org_name": "University of New Mexico", "lat": 35.090226, "lon": -106.625292, "terminated_loss": 12762243.5, "terminated_num": 3, "terminated_loss_noself": 12762243.5, "terminated_num_noself": 3}, {"org_name": "University of New Mexico Health Sciences Center", "lat": 35.090968, "lon": -106.617544, "terminated_loss": 11587093.19, "terminated_num": 3, "terminated_loss_noself": 535729.51, "terminated_num_noself": 2}, {"org_name": "University of Memphis", "lat": 35.120123, "lon": -89.939705, "terminated_loss": 9625.8, "terminated_num": 1, "terminated_loss_noself": 9625.8, "terminated_num_noself": 1}, {"org_name": "University of North Carolina Charlotte", "lat": 35.301652, "lon": -80.731452, "terminated_loss": 1263352.66, "terminated_num": 3, "terminated_loss_noself": 1263352.66, "terminated_num_noself": 3}, {"org_name": "University of Oklahoma Health Sciences Center", "lat": 35.47459, "lon": -97.505034, "terminated_loss": 1746225.28, "terminated_num": 7, "terminated_loss_noself": 1746225.28, "terminated_num_noself": 6}, {"org_name": "Cherokee Nation", "lat": 35.85318, "lon": -94.99067, "terminated_loss": 4954144.22, "terminated_num": 2, "terminated_loss_noself": 4954144.22, "terminated_num_noself": 2}, {"org_name": "Research Triangle Institute", "lat": 35.9138, "lon": -78.848911, "terminated_loss": 2897104.48, "terminated_num": 1, "terminated_loss_noself": 2897104.48, "terminated_num_noself": 1}, {"org_name": "University of North Carolina Chapel Hill", "lat": 35.9316, "lon": -79.057377, "terminated_loss": 25380945.87, "terminated_num": 25, "terminated_loss_noself": 20608694.89, "terminated_num_noself": 22}, {"org_name": "University of Tennessee Knoxville", "lat": 35.954943, "lon": -83.93035, "terminated_loss": 869339.57, "terminated_num": 2, "terminated_loss_noself": 869339.57, "terminated_num_noself": 2}, {"org_name": "Innovation Research and Training, Inc.", "lat": 35.964557, "lon": -78.940527, "terminated_loss": 114998.7, "terminated_num": 1, "terminated_loss_noself": 114998.7, "terminated_num_noself": 1}, {"org_name": "Family Health International", "lat": 35.992834, "lon": -78.903914, "terminated_loss": 425648342.85, "terminated_num": 1, "terminated_loss_noself": 425648342.85, "terminated_num_noself": 1}, {"org_name": "Duke University", "lat": 36.007766, "lon": -78.926475, "terminated_loss": 9694918.53, "terminated_num": 16, "terminated_loss_noself": 9349934.68, "terminated_num_noself": 14}, {"org_name": "University of Nevada Las Vegas", "lat": 36.109517, "lon": -115.141947, "terminated_loss": 5789617.58, "terminated_num": 4, "terminated_loss_noself": 5789617.58, "terminated_num_noself": 4}, {"org_name": "Oklahoma State University Stillwater", "lat": 36.115627, "lon": -97.058038, "terminated_loss": 315497.89, "terminated_num": 1, "terminated_loss_noself": 315497.89, "terminated_num_noself": 1}, {"org_name": "Vanderbilt University", "lat": 36.143381, "lon": -86.803365, "terminated_loss": 12856648.29, "terminated_num": 18, "terminated_loss_noself": 12856648.29, "terminated_num_noself": 16}, {"org_name": "Meharry Medical College", "lat": 36.166904, "lon": -86.806149, "terminated_loss": 26274165.67, "terminated_num": 4, "terminated_loss_noself": 26274165.67, "terminated_num_noself": 4}, {"org_name": "University of California Santa Cruz", "lat": 36.97756, "lon": -122.055836, "terminated_loss": 9355310.0, "terminated_num": 6, "terminated_loss_noself": 9355310.0, "terminated_num_noself": 6}, {"org_name": "San Jose State University", "lat": 37.340938, "lon": -121.889413, "terminated_loss": 96158.88, "terminated_num": 1, "terminated_loss_noself": 96158.88, "terminated_num_noself": 1}, {"org_name": "Stanford University", "lat": 37.426852, "lon": -122.17047, "terminated_loss": 10868614.43, "terminated_num": 15, "terminated_loss_noself": 10868614.43, "terminated_num_noself": 13}, {"org_name": "Virginia Commonwealth University", "lat": 37.549807, "lon": -77.452775, "terminated_loss": 9668154.98, "terminated_num": 9, "terminated_loss_noself": 9668154.98, "terminated_num_noself": 8}, {"org_name": "San Francisco State University", "lat": 37.72091, "lon": -122.476074, "terminated_loss": 1621727.4, "terminated_num": 3, "terminated_loss_noself": 1621727.4, "terminated_num_noself": 3}, {"org_name": "University of California, San Francisco", "lat": 37.767442, "lon": -122.413937, "terminated_loss": 81046447.86, "terminated_num": 38, "terminated_loss_noself": 80110386.53, "terminated_num_noself": 36}, {"org_name": "University of San Francisco", "lat": 37.775292, "lon": -122.451727, "terminated_loss": 555384.5, "terminated_num": 2, "terminated_loss_noself": 555384.5, "terminated_num_noself": 1}, {"org_name": "University of California Berkeley", "lat": 37.870017, "lon": -122.268624, "terminated_loss": 4970075.81, "terminated_num": 13, "terminated_loss_noself": 4970075.81, "terminated_num_noself": 13}, {"org_name": "University of the Pacific-Stockton", "lat": 37.984345, "lon": -121.309964, "terminated_loss": 429841.83, "terminated_num": 1, "terminated_loss_noself": 429841.83, "terminated_num_noself": 1}, {"org_name": "University of Kentucky", "lat": 38.040959, "lon": -84.505885, "terminated_loss": 1147112.88, "terminated_num": 3, "terminated_loss_noself": 1147112.88, "terminated_num_noself": 3}, {"org_name": "University of Virginia", "lat": 38.050527, "lon": -78.500531, "terminated_loss": 24007195.31, "terminated_num": 5, "terminated_loss_noself": 24007195.31, "terminated_num_noself": 5}, {"org_name": "University of Louisville", "lat": 38.215024, "lon": -85.760145, "terminated_loss": 8160473.51, "terminated_num": 7, "terminated_loss_noself": 8160473.51, "terminated_num_noself": 7}, {"org_name": "Neurovations", "lat": 38.325376, "lon": -122.291992, "terminated_loss": 4347499.18, "terminated_num": 1, "terminated_loss_noself": 4347499.18, "terminated_num_noself": 1}, {"org_name": "University of California at Davis", "lat": 38.543366, "lon": -121.72946, "terminated_loss": 9999641.25, "terminated_num": 20, "terminated_loss_noself": 9999641.25, "terminated_num_noself": 20}, {"org_name": "Washington University", "lat": 38.664368, "lon": -90.323797, "terminated_loss": 13565831.79, "terminated_num": 20, "terminated_loss_noself": 12479911.13, "terminated_num_noself": 19}, {"org_name": "George Washington University", "lat": 38.898075, "lon": -77.043933, "terminated_loss": 4124590.75, "terminated_num": 6, "terminated_loss_noself": 4124590.75, "terminated_num_noself": 6}, {"org_name": "Gerontological Society of America", "lat": 38.903389, "lon": -77.029146, "terminated_loss": 1043970.63, "terminated_num": 1, "terminated_loss_noself": 1043970.63, "terminated_num_noself": 1}, {"org_name": "Whitman-Walker Institute, Inc.", "lat": 38.9127, "lon": -77.031423, "terminated_loss": 1532010.33, "terminated_num": 2, "terminated_loss_noself": 1532010.33, "terminated_num_noself": 2}, {"org_name": "Children's Research Institute", "lat": 38.927274, "lon": -77.014396, "terminated_loss": 873238.37, "terminated_num": 2, "terminated_loss_noself": 873238.37, "terminated_num_noself": 2}, {"org_name": "Us Helping Us, People Into Living, Inc.", "lat": 38.935098, "lon": -77.024402, "terminated_loss": 114194.0, "terminated_num": 1, "terminated_loss_noself": 114194.0, "terminated_num_noself": 1}, {"org_name": "University of Maryland, College Park", "lat": 38.992333, "lon": -76.952986, "terminated_loss": 4222234.12, "terminated_num": 6, "terminated_loss_noself": 4222234.12, "terminated_num_noself": 6}, {"org_name": "University of Missouri Kansas City", "lat": 39.034521, "lon": -94.575773, "terminated_loss": 815550.82, "terminated_num": 1, "terminated_loss_noself": 815550.82, "terminated_num_noself": 1}, {"org_name": "Pacific Institute for Research and Evaluation", "lat": 39.050676, "lon": -76.93727, "terminated_loss": 1298293.21, "terminated_num": 2, "terminated_loss_noself": 1298293.21, "terminated_num_noself": 2}, {"org_name": "Westat, Inc.", "lat": 39.094626, "lon": -77.181453, "terminated_loss": 10317272.5, "terminated_num": 1, "terminated_loss_noself": 10317272.5, "terminated_num_noself": 1}, {"org_name": "University of Cincinnati", "lat": 39.129719, "lon": -84.520554, "terminated_loss": 3701011.32, "terminated_num": 5, "terminated_loss_noself": 3701011.32, "terminated_num_noself": 5}, {"org_name": "University of Maryland Baltimore", "lat": 39.292248, "lon": -76.625629, "terminated_loss": 21423295.23, "terminated_num": 14, "terminated_loss_noself": 20876333.28, "terminated_num_noself": 13}, {"org_name": "Friends Research Institute, Inc.", "lat": 39.303676, "lon": -76.619888, "terminated_loss": 1419942.37, "terminated_num": 2, "terminated_loss_noself": 1419942.37, "terminated_num_noself": 2}, {"org_name": "Johns Hopkins University", "lat": 39.325256, "lon": -76.605131, "terminated_loss": 18364708.59, "terminated_num": 28, "terminated_loss_noself": 18364708.59, "terminated_num_noself": 27}, {"org_name": "University of Nevada Reno", "lat": 39.545077, "lon": -119.818277, "terminated_loss": 336527.38, "terminated_num": 2, "terminated_loss_noself": 229383.28, "terminated_num_noself": 1}, {"org_name": "University of Denver (Colorado Seminary)", "lat": 39.676639, "lon": -104.959481, "terminated_loss": 995920.28, "terminated_num": 1, "terminated_loss_noself": 995920.28, "terminated_num_noself": 1}, {"org_name": "Denver Health and Hospital Authority", "lat": 39.727302, "lon": -104.991569, "terminated_loss": 138989.95, "terminated_num": 1, "terminated_loss_noself": 138989.95, "terminated_num_noself": 1}, {"org_name": "University of Colorado Denver", "lat": 39.745098, "lon": -104.837605, "terminated_loss": 9052657.65, "terminated_num": 18, "terminated_loss_noself": 9052657.65, "terminated_num_noself": 18}, {"org_name": "Children's Hospital of Philadelphia", "lat": 39.946632, "lon": -75.196604, "terminated_loss": 9999120.47, "terminated_num": 7, "terminated_loss_noself": 9999120.47, "terminated_num_noself": 7}, {"org_name": "University of Pennsylvania", "lat": 39.953462, "lon": -75.193983, "terminated_loss": 24269261.11, "terminated_num": 22, "terminated_loss_noself": 23719763.23, "terminated_num_noself": 21}, {"org_name": "Drexel University", "lat": 39.954073, "lon": -75.186541, "terminated_loss": 9424238.56, "terminated_num": 6, "terminated_loss_noself": 9424238.56, "terminated_num_noself": 6}, {"org_name": "Temple University of the Commonwealth", "lat": 39.980272, "lon": -75.157051, "terminated_loss": 2025954.95, "terminated_num": 6, "terminated_loss_noself": 2025954.95, "terminated_num_noself": 6}, {"org_name": "Ohio State University", "lat": 39.999598, "lon": -83.033131, "terminated_loss": 14948740.78, "terminated_num": 16, "terminated_loss_noself": 14948740.78, "terminated_num_noself": 15}, {"org_name": "University of Illinois at Urbana-Champaign", "lat": 40.116857, "lon": -88.228755, "terminated_loss": 54655.6, "terminated_num": 1, "terminated_loss_noself": 54655.6, "terminated_num_noself": 1}, {"org_name": "Pennsylvania State University Hershey Medical Center", "lat": 40.264414, "lon": -76.674014, "terminated_loss": 5251242.63, "terminated_num": 3, "terminated_loss_noself": 5251242.63, "terminated_num_noself": 3}, {"org_name": "Princeton University", "lat": 40.345441, "lon": -74.655866, "terminated_loss": 1705596.66, "terminated_num": 4, "terminated_loss_noself": 1674326.66, "terminated_num_noself": 3}, {"org_name": "Purdue University", "lat": 40.41872, "lon": -86.910361, "terminated_loss": 269561.95, "terminated_num": 2, "terminated_loss_noself": 269561.95, "terminated_num_noself": 2}, {"org_name": "Duquesne University", "lat": 40.437818, "lon": -79.993649, "terminated_loss": 869170.03, "terminated_num": 1, "terminated_loss_noself": 869170.03, "terminated_num_noself": 1}, {"org_name": "University of Pittsburgh at Pittsburgh", "lat": 40.440909, "lon": -79.959125, "terminated_loss": 93552919.01, "terminated_num": 26, "terminated_loss_noself": 93365796.8, "terminated_num_noself": 24}, {"org_name": "Rutgers Biomedical and Health Sciences", "lat": 40.520984, "lon": -74.473247, "terminated_loss": 5005768.83, "terminated_num": 9, "terminated_loss_noself": 5005768.83, "terminated_num_noself": 9}, {"org_name": "Brooklyn College", "lat": 40.631637, "lon": -73.952868, "terminated_loss": 10922.68, "terminated_num": 1, "terminated_loss_noself": 10922.68, "terminated_num_noself": 1}, {"org_name": "New York University School of Medicine", "lat": 40.669895, "lon": -73.974354, "terminated_loss": 6238313.95, "terminated_num": 9, "terminated_loss_noself": 6238313.95, "terminated_num_noself": 9}, {"org_name": "New York University", "lat": 40.729659, "lon": -73.997018, "terminated_loss": 2570329.95, "terminated_num": 7, "terminated_loss_noself": 2570329.95, "terminated_num_noself": 6}, {"org_name": "New School University", "lat": 40.735382, "lon": -73.997241, "terminated_loss": 41180.64, "terminated_num": 1, "terminated_loss_noself": 41180.64, "terminated_num_noself": 1}, {"org_name": "Queens College", "lat": 40.735855, "lon": -73.815751, "terminated_loss": 132876.91, "terminated_num": 1, "terminated_loss_noself": 132876.91, "terminated_num_noself": 1}, {"org_name": "Ecohealth Alliance, Inc.", "lat": 40.754061, "lon": -73.998951, "terminated_loss": 5716314.4, "terminated_num": 4, "terminated_loss_noself": 0.0, "terminated_num_noself": 0}, {"org_name": "Sloan-Kettering Inst Can Research", "lat": 40.764045, "lon": -73.956024, "terminated_loss": 799475.31, "terminated_num": 1, "terminated_loss_noself": 799475.31, "terminated_num_noself": 1}, {"org_name": "University of Utah", "lat": 40.764542, "lon": -111.850317, "terminated_loss": 2409156.82, "terminated_num": 10, "terminated_loss_noself": 2409156.82, "terminated_num_noself": 10}, {"org_name": "New York Blood Center", "lat": 40.76519, "lon": -73.959922, "terminated_loss": 165822.36, "terminated_num": 2, "terminated_loss_noself": 165822.36, "terminated_num_noself": 1}, {"org_name": "Hunter College", "lat": 40.768737, "lon": -73.965182, "terminated_loss": 270694.39, "terminated_num": 4, "terminated_loss_noself": 270694.39, "terminated_num_noself": 3}, {"org_name": "Icahn School of Medicine at Mount Sinai", "lat": 40.790284, "lon": -73.946781, "terminated_loss": 23777701.62, "terminated_num": 16, "terminated_loss_noself": 23777701.62, "terminated_num_noself": 13}, {"org_name": "City College of New York", "lat": 40.819407, "lon": -73.950169, "terminated_loss": 333423.83, "terminated_num": 2, "terminated_loss_noself": 333423.83, "terminated_num_noself": 2}, {"org_name": "University of Nebraska Lincoln", "lat": 40.823017, "lon": -96.673442, "terminated_loss": 844813.77, "terminated_num": 4, "terminated_loss_noself": 844813.77, "terminated_num_noself": 4}, {"org_name": "Albert Einstein College of Medicine", "lat": 40.85103, "lon": -73.844379, "terminated_loss": 6629813.3, "terminated_num": 8, "terminated_loss_noself": 6629813.3, "terminated_num_noself": 8}, {"org_name": "Hackensack University Medical Center", "lat": 40.883415, "lon": -74.055652, "terminated_loss": 84046.33, "terminated_num": 1, "terminated_loss_noself": 84046.33, "terminated_num_noself": 1}, {"org_name": "State University New York Stony Brook", "lat": 40.914561, "lon": -73.125169, "terminated_loss": 3640718.96, "terminated_num": 5, "terminated_loss_noself": 3640718.96, "terminated_num_noself": 4}, {"org_name": "Silverbills Inc.", "lat": 40.946852, "lon": -73.772045, "terminated_loss": 114680.93, "terminated_num": 1, "terminated_loss_noself": 114680.93, "terminated_num_noself": 1}, {"org_name": "Yale University", "lat": 41.310925, "lon": -72.926428, "terminated_loss": 44341168.49, "terminated_num": 32, "terminated_loss_noself": 44299812.25, "terminated_num_noself": 31}, {"org_name": "Pro-Change Behavior Systems, Inc.", "lat": 41.451027, "lon": -71.497523, "terminated_loss": 87678.57, "terminated_num": 1, "terminated_loss_noself": 87678.57, "terminated_num_noself": 1}, {"org_name": "University of Rhode Island", "lat": 41.486042, "lon": -71.528656, "terminated_loss": 901462.27, "terminated_num": 2, "terminated_loss_noself": 901462.27, "terminated_num_noself": 2}, {"org_name": "Case Western Reserve University", "lat": 41.502739, "lon": -81.607334, "terminated_loss": 4344998.06, "terminated_num": 8, "terminated_loss_noself": 4344998.06, "terminated_num_noself": 7}, {"org_name": "University of Iowa", "lat": 41.664405, "lon": -91.542152, "terminated_loss": 5148239.7, "terminated_num": 5, "terminated_loss_noself": 5148239.7, "terminated_num_noself": 5}, {"org_name": "National Opinion Research Center", "lat": 41.785875, "lon": -87.597545, "terminated_loss": 289065.86, "terminated_num": 2, "terminated_loss_noself": 289065.86, "terminated_num_noself": 2}, {"org_name": "University of Chicago", "lat": 41.789554, "lon": -87.601172, "terminated_loss": 14288751.99, "terminated_num": 13, "terminated_loss_noself": 14288751.99, "terminated_num_noself": 13}, {"org_name": "Emma Pendleton Bradley Hospital", "lat": 41.792379, "lon": -71.367401, "terminated_loss": 880254.47, "terminated_num": 1, "terminated_loss_noself": 880254.47, "terminated_num_noself": 1}, {"org_name": "Resilient Games Studio, LLC", "lat": 41.798959, "lon": -87.598077, "terminated_loss": 84777.53, "terminated_num": 1, "terminated_loss_noself": 84777.53, "terminated_num_noself": 1}, {"org_name": "University of Connecticut Storrs", "lat": 41.811419, "lon": -72.247553, "terminated_loss": 1447487.59, "terminated_num": 4, "terminated_loss_noself": 1447487.59, "terminated_num_noself": 4}, {"org_name": "Rhode Island Hospital", "lat": 41.811681, "lon": -71.409371, "terminated_loss": 589725.6, "terminated_num": 2, "terminated_loss_noself": 589725.6, "terminated_num_noself": 2}, {"org_name": "Brown University", "lat": 41.826136, "lon": -71.404513, "terminated_loss": 5552825.67, "terminated_num": 13, "terminated_loss_noself": 5538713.67, "terminated_num_noself": 10}, {"org_name": "Illinois Institute of Technology", "lat": 41.831064, "lon": -87.629049, "terminated_loss": 196611.92, "terminated_num": 1, "terminated_loss_noself": 196611.92, "terminated_num_noself": 1}, {"org_name": "University of Illinois at Chicago", "lat": 41.871509, "lon": -87.667721, "terminated_loss": 10248489.2, "terminated_num": 7, "terminated_loss_noself": 10248489.2, "terminated_num_noself": 7}, {"org_name": "Rush University Medical Center", "lat": 41.87506, "lon": -87.668327, "terminated_loss": 2577509.62, "terminated_num": 3, "terminated_loss_noself": 2577509.62, "terminated_num_noself": 3}, {"org_name": "Lurie Children's Hospital of Chicago", "lat": 41.896663, "lon": -87.622919, "terminated_loss": 179368.0, "terminated_num": 1, "terminated_loss_noself": 179368.0, "terminated_num_noself": 1}, {"org_name": "Endeavor Health Clinical Operations", "lat": 42.064695, "lon": -87.689868, "terminated_loss": 1412830.85, "terminated_num": 1, "terminated_loss_noself": 1412830.85, "terminated_num_noself": 1}, {"org_name": "Eastern Michigan University", "lat": 42.233132, "lon": -83.623767, "terminated_loss": 1039731.22, "terminated_num": 1, "terminated_loss_noself": 1039731.22, "terminated_num_noself": 1}, {"org_name": "University of Michigan at Ann Arbor", "lat": 42.275494, "lon": -83.743038, "terminated_loss": 27001764.33, "terminated_num": 30, "terminated_loss_noself": 27001764.33, "terminated_num_noself": 28}, {"org_name": "Harvard Pilgrim Health Care, Inc.", "lat": 42.316808, "lon": -71.234595, "terminated_loss": 3830024.58, "terminated_num": 5, "terminated_loss_noself": 3830024.58, "terminated_num_noself": 5}, {"org_name": "Harvard School of Public Health", "lat": 42.335306, "lon": -71.102775, "terminated_loss": 594136597.01, "terminated_num": 157, "terminated_loss_noself": 582867328.42, "terminated_num_noself": 149}, {"org_name": "Brigham and Women's Hospital", "lat": 42.336107, "lon": -71.107481, "terminated_loss": 2242625.58, "terminated_num": 5, "terminated_loss_noself": 2242625.58, "terminated_num_noself": 5}, {"org_name": "Boston Medical Center", "lat": 42.336854, "lon": -71.070881, "terminated_loss": 202897.6, "terminated_num": 2, "terminated_loss_noself": 202897.6, "terminated_num_noself": 2}, {"org_name": "Boston College", "lat": 42.336956, "lon": -71.170504, "terminated_loss": 3757019.07, "terminated_num": 5, "terminated_loss_noself": 3757019.07, "terminated_num_noself": 4}, {"org_name": "Boston Children's Hospital", "lat": 42.337481, "lon": -71.104964, "terminated_loss": 5254294.68, "terminated_num": 7, "terminated_loss_noself": 5254294.68, "terminated_num_noself": 7}, {"org_name": "Beth Israel Deaconess Medical Center", "lat": 42.33982, "lon": -71.10568, "terminated_loss": 1478663.95, "terminated_num": 3, "terminated_loss_noself": 1478663.95, "terminated_num_noself": 3}, {"org_name": "Northeastern University", "lat": 42.340048, "lon": -71.088892, "terminated_loss": 1313483.55, "terminated_num": 4, "terminated_loss_noself": 1313483.55, "terminated_num_noself": 4}, {"org_name": "Fenway Community Health Center", "lat": 42.34412, "lon": -71.098412, "terminated_loss": 411683.52, "terminated_num": 1, "terminated_loss_noself": 411683.52, "terminated_num_noself": 1}, {"org_name": "Broad Institute, Inc.", "lat": 42.363082, "lon": -71.087893, "terminated_loss": 8132769.37, "terminated_num": 2, "terminated_loss_noself": 8132769.37, "terminated_num_noself": 2}, {"org_name": "Massachusetts General Hospital", "lat": 42.363198, "lon": -71.068772, "terminated_loss": 10165924.29, "terminated_num": 11, "terminated_loss_noself": 10165924.29, "terminated_num_noself": 11}, {"org_name": "Harvard University", "lat": 42.369697, "lon": -71.11193, "terminated_loss": 173427788.38, "terminated_num": 139, "terminated_loss_noself": 172417321.7, "terminated_num_noself": 134}, {"org_name": "Ibis Reproductive Health", "lat": 42.372813, "lon": -71.119098, "terminated_loss": 214131.0, "terminated_num": 1, "terminated_loss_noself": 214131.0, "terminated_num_noself": 1}, {"org_name": "Cambridge Health Alliance", "lat": 42.374417, "lon": -71.104436, "terminated_loss": 1712200.84, "terminated_num": 2, "terminated_loss_noself": 1712200.84, "terminated_num_noself": 2}, {"org_name": "University of Massachusetts Amherst", "lat": 42.386914, "lon": -72.521131, "terminated_loss": 1123743.32, "terminated_num": 1, "terminated_loss_noself": 1123743.32, "terminated_num_noself": 1}, {"org_name": "Bentley University", "lat": 42.388834, "lon": -71.220231, "terminated_loss": 6005.70000000001, "terminated_num": 1, "terminated_loss_noself": 6005.70000000001, "terminated_num_noself": 1}, {"org_name": "University of Detroit Mercy", "lat": 42.417084, "lon": -83.138847, "terminated_loss": 99780.84, "terminated_num": 1, "terminated_loss_noself": 99780.84, "terminated_num_noself": 1}, {"org_name": "Cornell University", "lat": 42.438, "lon": -76.4625, "terminated_loss": 11699070.64, "terminated_num": 4, "terminated_loss_noself": 11699070.64, "terminated_num_noself": 4}, {"org_name": "Michigan State University", "lat": 42.653979, "lon": -84.492032, "terminated_loss": 1712923.09, "terminated_num": 5, "terminated_loss_noself": 1712923.09, "terminated_num_noself": 5}, {"org_name": "Roswell Park Cancer Institute Corp", "lat": 42.873378, "lon": -78.869243, "terminated_loss": 63938697.66, "terminated_num": 1, "terminated_loss_noself": 63938697.66, "terminated_num_noself": 1}, {"org_name": "State University of New York at Buffalo", "lat": 43.003074, "lon": -78.785924, "terminated_loss": 2182461.92, "terminated_num": 6, "terminated_loss_noself": 2182461.92, "terminated_num_noself": 6}, {"org_name": "Marquette University", "lat": 43.038728, "lon": -87.923307, "terminated_loss": 153406.98, "terminated_num": 1, "terminated_loss_noself": 153406.98, "terminated_num_noself": 1}, {"org_name": "Medical College of Wisconsin", "lat": 43.04575, "lon": -88.020374, "terminated_loss": 2747825.68, "terminated_num": 8, "terminated_loss_noself": 2747825.68, "terminated_num_noself": 8}, {"org_name": "University of Wisconsin-Madison", "lat": 43.068519, "lon": -89.400858, "terminated_loss": 6883168.05, "terminated_num": 12, "terminated_loss_noself": 6852076.66, "terminated_num_noself": 11}, {"org_name": "University of Wisconsin Milwaukee", "lat": 43.075704, "lon": -87.877999, "terminated_loss": 3125950.81, "terminated_num": 5, "terminated_loss_noself": 2757403.77, "terminated_num_noself": 4}, {"org_name": "University of Rochester", "lat": 43.131774, "lon": -77.63546, "terminated_loss": 3435555.71, "terminated_num": 11, "terminated_loss_noself": 3435555.71, "terminated_num_noself": 11}, {"org_name": "Mainehealth", "lat": 43.653164, "lon": -70.275471, "terminated_loss": 21567108.02, "terminated_num": 1, "terminated_loss_noself": 21567108.02, "terminated_num_noself": 1}, {"org_name": "Mayo Clinic Rochester", "lat": 44.02432, "lon": -92.46011, "terminated_loss": 28677388.3, "terminated_num": 3, "terminated_loss_noself": 28677388.3, "terminated_num_noself": 2}, {"org_name": "University of Oregon", "lat": 44.045509, "lon": -123.069741, "terminated_loss": 1210179.41, "terminated_num": 4, "terminated_loss_noself": 527072.06, "terminated_num_noself": 2}, {"org_name": "Iris Media, Inc.", "lat": 44.048722, "lon": -123.088476, "terminated_loss": 133274.02, "terminated_num": 1, "terminated_loss_noself": 133274.02, "terminated_num_noself": 1}, {"org_name": "Healthpartners Institute", "lat": 44.85364, "lon": -93.225576, "terminated_loss": 705873.41, "terminated_num": 2, "terminated_loss_noself": 705873.41, "terminated_num_noself": 1}, {"org_name": "University of Minnesota", "lat": 44.975143, "lon": -93.227003, "terminated_loss": 16541452.96, "terminated_num": 13, "terminated_loss_noself": 13097278.73, "terminated_num_noself": 12}, {"org_name": "Oregon Health & Science University", "lat": 45.49882, "lon": -122.685647, "terminated_loss": 3558552.52, "terminated_num": 6, "terminated_loss_noself": 3558552.52, "terminated_num_noself": 6}, {"org_name": "Montana State University - Bozeman", "lat": 45.661963, "lon": -111.059937, "terminated_loss": 449240.0, "terminated_num": 2, "terminated_loss_noself": 449240.0, "terminated_num_noself": 2}, {"org_name": "Washington State University", "lat": 46.728892, "lon": -117.155742, "terminated_loss": 3320433.7, "terminated_num": 3, "terminated_loss_noself": 3320433.7, "terminated_num_noself": 3}, {"org_name": "University of Idaho", "lat": 46.730287, "lon": -116.996847, "terminated_loss": 243447.5, "terminated_num": 1, "terminated_loss_noself": 243447.5, "terminated_num_noself": 1}, {"org_name": "University of Montana", "lat": 46.860203, "lon": -113.983723, "terminated_loss": 472743.88, "terminated_num": 2, "terminated_loss_noself": 472743.88, "terminated_num_noself": 2}, {"org_name": "Institute for Systems Biology", "lat": 47.622538, "lon": -122.337533, "terminated_loss": 1293573.11, "terminated_num": 2, "terminated_loss_noself": 1293573.11, "terminated_num_noself": 2}, {"org_name": "Fred Hutchinson Cancer Center", "lat": 47.626482, "lon": -122.329606, "terminated_loss": 7221970.23, "terminated_num": 5, "terminated_loss_noself": 7221970.23, "terminated_num_noself": 5}, {"org_name": "University of Washington", "lat": 47.660307, "lon": -122.315168, "terminated_loss": 9146010.56, "terminated_num": 18, "terminated_loss_noself": 8109967.88, "terminated_num_noself": 14}, {"org_name": "Seattle Children's Hospital", "lat": 47.66243, "lon": -122.282291, "terminated_loss": 2670811.27, "terminated_num": 4, "terminated_loss_noself": 2670811.27, "terminated_num_noself": 4}, {"org_name": "Southcentral Foundation", "lat": 61.182148, "lon": -149.795959, "terminated_loss": 698945.86, "terminated_num": 1, "terminated_loss_noself": 698945.86, "terminated_num_noself": 1}, {"org_name": "University of Alaska Anchorage", "lat": 61.190646, "lon": -149.818129, "terminated_loss": 92557.24, "terminated_num": 1, "terminated_loss_noself": 92557.24, "terminated_num_noself": 1}, {"org_name": "Queen's Medical Center", "lat": 21.307803, "lon": -157.853947, "terminated_loss": 633837.19, "terminated_num": 1, "terminated_loss_noself": 633837.19, "terminated_num_noself": 1}, {"org_name": "Colliga Apps Corp.", "lat": 25.763047, "lon": -80.190448, "terminated_loss": 509576.53, "terminated_num": 1, "terminated_loss_noself": 509576.53, "terminated_num_noself": 1}, {"org_name": "University of South Florida", "lat": 28.074039, "lon": -82.395963, "terminated_loss": 186815.06, "terminated_num": 1, "terminated_loss_noself": 186815.06, "terminated_num_noself": 1}, {"org_name": "University of Texas Health Science Center", "lat": 29.513091, "lon": -98.577742, "terminated_loss": 5891103.2, "terminated_num": 7, "terminated_loss_noself": 5891103.2, "terminated_num_noself": 7}, {"org_name": "University of Texas Health Science Center Houston", "lat": 29.703025, "lon": -95.403303, "terminated_loss": 2072672.93, "terminated_num": 5, "terminated_loss_noself": 2072672.93, "terminated_num_noself": 5}, {"org_name": "LSU Health Scienes Center", "lat": 29.957378, "lon": -90.082793, "terminated_loss": 451935.95, "terminated_num": 2, "terminated_loss_noself": 451935.95, "terminated_num_noself": 2}, {"org_name": "Dillard University", "lat": 29.996211, "lon": -90.065957, "terminated_loss": 601634.75, "terminated_num": 1, "terminated_loss_noself": 601634.75, "terminated_num_noself": 1}, {"org_name": "Prairie View\u00a0A&M\u00a0University\u00a0", "lat": 30.081335, "lon": -95.992865, "terminated_loss": 29392.01, "terminated_num": 1, "terminated_loss_noself": 29392.01, "terminated_num_noself": 1}, {"org_name": "Mayo Clinic Jacksonville", "lat": 30.264703, "lon": -81.444793, "terminated_loss": 6564.86, "terminated_num": 1, "terminated_loss_noself": 6564.86, "terminated_num_noself": 1}, {"org_name": "University of North Florida", "lat": 30.270668, "lon": -81.510431, "terminated_loss": 134693.18, "terminated_num": 1, "terminated_loss_noself": 134693.18, "terminated_num_noself": 1}, {"org_name": "Texas Engineering Experiment Station", "lat": 30.561542, "lon": -96.253207, "terminated_loss": 785667.34, "terminated_num": 1, "terminated_loss_noself": 785667.34, "terminated_num_noself": 1}, {"org_name": "Texas A&M University", "lat": 30.605876, "lon": -96.368771, "terminated_loss": 6633469.41, "terminated_num": 5, "terminated_loss_noself": 6633469.41, "terminated_num_noself": 5}, {"org_name": "Sam Houston State University", "lat": 30.715211, "lon": -95.549345, "terminated_loss": 64015.42, "terminated_num": 1, "terminated_loss_noself": 64015.42, "terminated_num_noself": 1}, {"org_name": "Baylor University", "lat": 31.555713, "lon": -97.121401, "terminated_loss": 2191761.98, "terminated_num": 1, "terminated_loss_noself": 2191761.98, "terminated_num_noself": 1}, {"org_name": "New Mexico State University Las Cruces", "lat": 32.279041, "lon": -106.755696, "terminated_loss": 561830.27, "terminated_num": 2, "terminated_loss_noself": 561830.27, "terminated_num_noself": 2}, {"org_name": "University of Texas Arlington", "lat": 32.728201, "lon": -97.112604, "terminated_loss": 1328349.14, "terminated_num": 2, "terminated_loss_noself": 1328349.14, "terminated_num_noself": 2}, {"org_name": "Scripps Health", "lat": 32.887742, "lon": -117.223797, "terminated_loss": 818845.0, "terminated_num": 1, "terminated_loss_noself": 818845.0, "terminated_num_noself": 1}, {"org_name": "California State University San Marcos", "lat": 33.13799, "lon": -117.151093, "terminated_loss": 275064.16, "terminated_num": 2, "terminated_loss_noself": 275064.16, "terminated_num_noself": 2}, {"org_name": "Claflin University", "lat": 33.495919, "lon": -80.855463, "terminated_loss": 877815.18, "terminated_num": 1, "terminated_loss_noself": 877815.18, "terminated_num_noself": 1}, {"org_name": "Mayo Clinic Arizona", "lat": 33.589113, "lon": -111.79394, "terminated_loss": 1009099.89, "terminated_num": 1, "terminated_loss_noself": 1009099.89, "terminated_num_noself": 1}, {"org_name": "California State University Long Beach", "lat": 33.781104, "lon": -118.109903, "terminated_loss": 217726.13, "terminated_num": 1, "terminated_loss_noself": 217726.13, "terminated_num_noself": 1}, {"org_name": "Georgia Institute of Technology", "lat": 33.781897, "lon": -84.404009, "terminated_loss": 279234.1, "terminated_num": 2, "terminated_loss_noself": 279234.1, "terminated_num_noself": 2}, {"org_name": "California State University - Dominguez Hills", "lat": 33.867141, "lon": -118.255341, "terminated_loss": 12986.19, "terminated_num": 1, "terminated_loss_noself": 12986.19, "terminated_num_noself": 1}, {"org_name": "California State University Los Angeles", "lat": 34.062539, "lon": -118.169044, "terminated_loss": 979392.28, "terminated_num": 1, "terminated_loss_noself": 979392.28, "terminated_num_noself": 1}, {"org_name": "California Institute of Technology", "lat": 34.134332, "lon": -118.12652, "terminated_loss": 1368285.76, "terminated_num": 1, "terminated_loss_noself": 1368285.76, "terminated_num_noself": 1}, {"org_name": "California State University San Bernardino", "lat": 34.176782, "lon": -117.330185, "terminated_loss": 881103.1, "terminated_num": 1, "terminated_loss_noself": 881103.1, "terminated_num_noself": 1}, {"org_name": "Clemson University", "lat": 34.673146, "lon": -82.823962, "terminated_loss": 357075.02, "terminated_num": 2, "terminated_loss_noself": 357075.02, "terminated_num_noself": 2}, {"org_name": "Fayetteville State University", "lat": 35.071547, "lon": -78.894454, "terminated_loss": 94529.28, "terminated_num": 1, "terminated_loss_noself": 94529.28, "terminated_num_noself": 1}, {"org_name": "St. Jude Children's Research Hospital", "lat": 35.155607, "lon": -90.045279, "terminated_loss": 681666.08, "terminated_num": 1, "terminated_loss_noself": 681666.08, "terminated_num_noself": 1}, {"org_name": "University of Oklahoma", "lat": 35.209223, "lon": -97.443781, "terminated_loss": 1263097.08, "terminated_num": 1, "terminated_loss_noself": 1263097.08, "terminated_num_noself": 1}, {"org_name": "California State University Bakersfield", "lat": 35.354257, "lon": -119.107587, "terminated_loss": 263387.94, "terminated_num": 1, "terminated_loss_noself": 263387.94, "terminated_num_noself": 1}, {"org_name": "Oklahoma Medical Research Foundation", "lat": 35.482988, "lon": -97.49781, "terminated_loss": 546743.95, "terminated_num": 2, "terminated_loss_noself": 546743.95, "terminated_num_noself": 2}, {"org_name": "Equiti Foods, LLC", "lat": 35.901309, "lon": -79.061049, "terminated_loss": 375651.73, "terminated_num": 1, "terminated_loss_noself": 375651.73, "terminated_num_noself": 1}, {"org_name": "North Carolina Central University", "lat": 35.97467, "lon": -78.898054, "terminated_loss": 224681.54, "terminated_num": 1, "terminated_loss_noself": 224681.54, "terminated_num_noself": 1}, {"org_name": "University of North Carolina Greensboro", "lat": 36.065048, "lon": -79.808967, "terminated_loss": 123287.07, "terminated_num": 1, "terminated_loss_noself": 123287.07, "terminated_num_noself": 1}, {"org_name": "Laureate Institute for Brain Research", "lat": 36.066243, "lon": -95.919455, "terminated_loss": 136578.83, "terminated_num": 1, "terminated_loss_noself": 136578.83, "terminated_num_noself": 1}, {"org_name": "North Carolina A&T State University", "lat": 36.074178, "lon": -79.775965, "terminated_loss": 107518.95, "terminated_num": 2, "terminated_loss_noself": 107518.95, "terminated_num_noself": 2}, {"org_name": "Tennessee State University", "lat": 36.168333, "lon": -86.828524, "terminated_loss": 171144.06, "terminated_num": 1, "terminated_loss_noself": 171144.06, "terminated_num_noself": 1}, {"org_name": "Old Dominion University", "lat": 36.888989, "lon": -76.303478, "terminated_loss": 130042.7, "terminated_num": 2, "terminated_loss_noself": 130042.7, "terminated_num_noself": 2}, {"org_name": "Western Kentucky University", "lat": 36.986798, "lon": -86.455375, "terminated_loss": 596490.48, "terminated_num": 1, "terminated_loss_noself": 596490.48, "terminated_num_noself": 1}, {"org_name": "Hampton University", "lat": 37.025661, "lon": -76.347732, "terminated_loss": 116600.0, "terminated_num": 1, "terminated_loss_noself": 116600.0, "terminated_num_noself": 1}, {"org_name": "Fort Lewis College", "lat": 37.274983, "lon": -107.872039, "terminated_loss": 328029.42, "terminated_num": 1, "terminated_loss_noself": 328029.42, "terminated_num_noself": 1}, {"org_name": "University of California, Merced", "lat": 37.351306, "lon": -120.4324, "terminated_loss": 606916.19, "terminated_num": 2, "terminated_loss_noself": 606916.19, "terminated_num_noself": 2}, {"org_name": "San Francisco Department of Public Health", "lat": 37.778128, "lon": -122.418652, "terminated_loss": 924356.0, "terminated_num": 1, "terminated_loss_noself": 0.0, "terminated_num_noself": 0}, {"org_name": "California State University Sacramento", "lat": 38.553853, "lon": -121.421265, "terminated_loss": 104994.08, "terminated_num": 1, "terminated_loss_noself": 104994.08, "terminated_num_noself": 1}, {"org_name": "Isa Associates, Inc.", "lat": 38.805407, "lon": -77.039842, "terminated_loss": 1250418.19, "terminated_num": 1, "terminated_loss_noself": 1250418.19, "terminated_num_noself": 1}, {"org_name": "American Psychological Association", "lat": 38.89984, "lon": -77.007538, "terminated_loss": 352463.59, "terminated_num": 1, "terminated_loss_noself": 352463.59, "terminated_num_noself": 1}, {"org_name": "Endocrine Society", "lat": 38.904115, "lon": -77.046163, "terminated_loss": 1361923.0, "terminated_num": 1, "terminated_loss_noself": 1361923.0, "terminated_num_noself": 1}, {"org_name": "Georgetown University", "lat": 38.905206, "lon": -77.07547, "terminated_loss": 820436.43, "terminated_num": 2, "terminated_loss_noself": 820436.43, "terminated_num_noself": 2}, {"org_name": "Howard University", "lat": 38.923138, "lon": -77.021576, "terminated_loss": 102660.23, "terminated_num": 1, "terminated_loss_noself": 102660.23, "terminated_num_noself": 1}, {"org_name": "Academic Pediatric Association", "lat": 38.937467, "lon": -77.176943, "terminated_loss": 859004.59, "terminated_num": 1, "terminated_loss_noself": 859004.59, "terminated_num_noself": 1}, {"org_name": "University of Missouri-Columbia", "lat": 38.948231, "lon": -92.327335, "terminated_loss": 7393072.58, "terminated_num": 6, "terminated_loss_noself": 7393072.58, "terminated_num_noself": 6}, {"org_name": "American Gastroenterological Association Institute", "lat": 38.989333, "lon": -77.099203, "terminated_loss": 810801.0, "terminated_num": 1, "terminated_loss_noself": 810801.0, "terminated_num_noself": 1}, {"org_name": "Delaware State University", "lat": 39.189379, "lon": -75.541169, "terminated_loss": 7621565.7, "terminated_num": 3, "terminated_loss_noself": 7621565.7, "terminated_num_noself": 3}, {"org_name": "University of Maryland Baltimore County", "lat": 39.252457, "lon": -76.71121, "terminated_loss": 1538888.5, "terminated_num": 3, "terminated_loss_noself": 1538888.5, "terminated_num_noself": 3}, {"org_name": "Rowan University", "lat": 39.707715, "lon": -75.116897, "terminated_loss": 357462.3, "terminated_num": 1, "terminated_loss_noself": 357462.3, "terminated_num_noself": 1}, {"org_name": "University of Delaware", "lat": 39.714507, "lon": -75.738715, "terminated_loss": 249954.48, "terminated_num": 1, "terminated_loss_noself": 249954.48, "terminated_num_noself": 1}, {"org_name": "Indiana University Indianapolis", "lat": 39.779213, "lon": -86.175288, "terminated_loss": 5009916.72, "terminated_num": 6, "terminated_loss_noself": 5009916.72, "terminated_num_noself": 6}, {"org_name": "Thomas Jefferson University", "lat": 39.948207, "lon": -75.157825, "terminated_loss": 856749.17, "terminated_num": 2, "terminated_loss_noself": 856749.17, "terminated_num_noself": 2}, {"org_name": "Rutgers University", "lat": 40.481906, "lon": -74.457066, "terminated_loss": 6215628.85, "terminated_num": 2, "terminated_loss_noself": 6215628.85, "terminated_num_noself": 2}, {"org_name": "Colorado State University", "lat": 40.57951, "lon": -105.081267, "terminated_loss": 390567.28, "terminated_num": 2, "terminated_loss_noself": 390567.28, "terminated_num_noself": 2}, {"org_name": "Medgar Evers College", "lat": 40.667136, "lon": -73.951831, "terminated_loss": 65977.64, "terminated_num": 1, "terminated_loss_noself": 65977.64, "terminated_num_noself": 1}, {"org_name": "New Jersey Institute of Technology", "lat": 40.742916, "lon": -74.176244, "terminated_loss": 928946.38, "terminated_num": 2, "terminated_loss_noself": 928946.38, "terminated_num_noself": 2}, {"org_name": "Bellage, Inc.", "lat": 40.74767, "lon": -73.918101, "terminated_loss": 76716.85, "terminated_num": 1, "terminated_loss_noself": 76716.85, "terminated_num_noself": 1}, {"org_name": "Hospital for Special Surgery", "lat": 40.765324, "lon": -73.953947, "terminated_loss": 4678943.82, "terminated_num": 1, "terminated_loss_noself": 4678943.82, "terminated_num_noself": 1}, {"org_name": "Cold Spring Harbor Laboratory", "lat": 40.86755, "lon": -73.473456, "terminated_loss": 287242.57, "terminated_num": 1, "terminated_loss_noself": 287242.57, "terminated_num_noself": 1}, {"org_name": "Herbert H. Lehman College", "lat": 40.870857, "lon": -73.8866, "terminated_loss": 189545.1, "terminated_num": 2, "terminated_loss_noself": 189545.1, "terminated_num_noself": 2}, {"org_name": "Kent State University", "lat": 41.152425, "lon": -81.337881, "terminated_loss": 555660.79, "terminated_num": 1, "terminated_loss_noself": 555660.79, "terminated_num_noself": 1}, {"org_name": "University of Nebraska Medical Center", "lat": 41.265996, "lon": -96.010026, "terminated_loss": 1216903.44, "terminated_num": 3, "terminated_loss_noself": 1216903.44, "terminated_num_noself": 3}, {"org_name": "University of Notre Dame", "lat": 41.693901, "lon": -86.239284, "terminated_loss": 624957.18, "terminated_num": 3, "terminated_loss_noself": 624957.18, "terminated_num_noself": 2}, {"org_name": "University of Connecticut School of Medicine", "lat": 41.734182, "lon": -72.793791, "terminated_loss": 208211.02, "terminated_num": 1, "terminated_loss_noself": 208211.02, "terminated_num_noself": 1}, {"org_name": "University of Hartford", "lat": 41.79337, "lon": -72.716263, "terminated_loss": 8125.07000000001, "terminated_num": 1, "terminated_loss_noself": 8125.07000000001, "terminated_num_noself": 1}, {"org_name": "Northwestern University", "lat": 42.050479, "lon": -87.680046, "terminated_loss": 55362569.19, "terminated_num": 23, "terminated_loss_noself": 55234271.21, "terminated_num_noself": 22}, {"org_name": "University of Massachusetts Boston", "lat": 42.313703, "lon": -71.062976, "terminated_loss": 1993051.69, "terminated_num": 1, "terminated_loss_noself": 1993051.69, "terminated_num_noself": 1}, {"org_name": "Harvard Medical School", "lat": 42.335672, "lon": -71.104237, "terminated_loss": 446241366.82, "terminated_num": 339, "terminated_loss_noself": 446241366.82, "terminated_num_noself": 327}, {"org_name": "Wayne State University", "lat": 42.357466, "lon": -83.065294, "terminated_loss": 1290218.75, "terminated_num": 4, "terminated_loss_noself": 1290218.75, "terminated_num_noself": 4}, {"org_name": "MGH Institute of Health Professions", "lat": 42.374956, "lon": -71.05421, "terminated_loss": 1149930.94, "terminated_num": 1, "terminated_loss_noself": 1149930.94, "terminated_num_noself": 1}, {"org_name": "McLean Hospital", "lat": 42.393619, "lon": -71.191142, "terminated_loss": 6831405.87, "terminated_num": 3, "terminated_loss_noself": 6831405.87, "terminated_num_noself": 3}, {"org_name": "Rensselaer Polytechnic Institute", "lat": 42.732865, "lon": -73.683493, "terminated_loss": 1064933.83, "terminated_num": 1, "terminated_loss_noself": 1064933.83, "terminated_num_noself": 1}, {"org_name": "Syracuse University", "lat": 43.041575, "lon": -76.133784, "terminated_loss": 82266.61, "terminated_num": 1, "terminated_loss_noself": 82266.61, "terminated_num_noself": 1}, {"org_name": "Rochester Institute of Technology", "lat": 43.092171, "lon": -77.674767, "terminated_loss": 76536.09, "terminated_num": 1, "terminated_loss_noself": 76536.09, "terminated_num_noself": 1}, {"org_name": "Central Michigan University", "lat": 43.601402, "lon": -84.787107, "terminated_loss": 310011.26, "terminated_num": 1, "terminated_loss_noself": 310011.26, "terminated_num_noself": 1}, {"org_name": "Dartmouth College", "lat": 43.711386, "lon": -72.270611, "terminated_loss": 521638.92, "terminated_num": 3, "terminated_loss_noself": 521638.92, "terminated_num_noself": 3}, {"org_name": "Jackson Laboratory", "lat": 44.365361, "lon": -68.196303, "terminated_loss": 957336.41, "terminated_num": 3, "terminated_loss_noself": 957336.41, "terminated_num_noself": 3}, {"org_name": "Clarkson University", "lat": 44.65482, "lon": -74.95554, "terminated_loss": 84132.11, "terminated_num": 1, "terminated_loss_noself": 84132.11, "terminated_num_noself": 1}, {"org_name": "Missouri Breaks Research, Inc.", "lat": 45.4277, "lon": -101.074481, "terminated_loss": 1019046.67, "terminated_num": 1, "terminated_loss_noself": 1019046.67, "terminated_num_noself": 1}, {"org_name": "Portland State University", "lat": 45.51201, "lon": -122.679476, "terminated_loss": 519656.78, "terminated_num": 1, "terminated_loss_noself": 519656.78, "terminated_num_noself": 1}, {"org_name": "Allen Institute", "lat": 47.650084, "lon": -122.351604, "terminated_loss": 72390064.53, "terminated_num": 3, "terminated_loss_noself": 72390064.53, "terminated_num_noself": 3}, {"org_name": "University of North Dakota", "lat": 47.919868, "lon": -97.072819, "terminated_loss": 195698.72, "terminated_num": 2, "terminated_loss_noself": 195698.72, "terminated_num_noself": 2}, {"org_name": "University of Alaska Fairbanks", "lat": 64.857437, "lon": -147.800301, "terminated_loss": 340280.87, "terminated_num": 1, "terminated_loss_noself": 340280.87, "terminated_num_noself": 1}]}