{"GRANT_LOSSES": [{"org_name": "University of Texas Medical Branch Galveston", "lat": 29.311028, "lon": -94.778007, "terminated_loss": 44782018.15, "terminated_num": 5, "terminated_loss_noself": 44782018.15, "terminated_num_noself": 5}, {"org_name": "University of Texas MD Anderson Cancer Center", "lat": 29.706319, "lon": -95.397195, "terminated_loss": 831580.67, "terminated_num": 2, "terminated_loss_noself": 831580.67, "terminated_num_noself": 2}, {"org_name": "Florida A&M University", "lat": 30.428914, "lon": -84.289766, "terminated_loss": 6912299.41, "terminated_num": 1, "terminated_loss_noself": 6912299.41, "terminated_num_noself": 1}, {"org_name": "University of Texas Southwestern Medical Center", "lat": 32.811963, "lon": -96.837534, "terminated_loss": 8061829.19372057, "terminated_num": 12, "terminated_loss_noself": 8061829.19372057, "terminated_num_noself": 11}, {"org_name": "Clark Atlanta University", "lat": 33.747725, "lon": -84.41301, "terminated_loss": 397805.39, "terminated_num": 2, "terminated_loss_noself": 397805.39, "terminated_num_noself": 1}, {"org_name": "Charles R. Drew University of Medicine & Science", "lat": 33.923952, "lon": -118.245687, "terminated_loss": 5262381.53, "terminated_num": 3, "terminated_loss_noself": 5262381.53, "terminated_num_noself": 2}, {"org_name": "Wake Forest University Health Sciences", "lat": 36.059402, "lon": -80.321981, "terminated_loss": 4543806.32, "terminated_num": 8, "terminated_loss_noself": 4543806.32, "terminated_num_noself": 8}, {"org_name": "Virginia Polytechnic Institute and State University", "lat": 37.233061, "lon": -80.421005, "terminated_loss": 7542160.85, "terminated_num": 9, "terminated_loss_noself": 7542160.85, "terminated_num_noself": 9}, {"org_name": "WETA TV 26", "lat": 38.84087, "lon": -77.086486, "terminated_loss": 65168.7, "terminated_num": 1, "terminated_loss_noself": 65168.7, "terminated_num_noself": 1}, {"org_name": "Indiana University", "lat": 39.172055, "lon": -86.523157, "terminated_loss": 610.989999999998, "terminated_num": 1, "terminated_loss_noself": 610.989999999998, "terminated_num_noself": 1}, {"org_name": "Rutgers, Camden", "lat": 39.947479, "lon": -75.123053, "terminated_loss": 82742.2, "terminated_num": 1, "terminated_loss_noself": 82742.2, "terminated_num_noself": 1}, {"org_name": "The Research Institute at Nationwide Children's Hospital", "lat": 39.95251, "lon": -82.979302, "terminated_loss": 1173879.99, "terminated_num": 3, "terminated_loss_noself": 1173879.99, "terminated_num_noself": 3}, {"org_name": "NDRI-USA, Inc.", "lat": 40.74287, "lon": -73.992333, "terminated_loss": 257235.38, "terminated_num": 1, "terminated_loss_noself": 257235.38, "terminated_num_noself": 1}, {"org_name": "Weill Medical College of Cornell University", "lat": 40.7607, "lon": -73.9603, "terminated_loss": 31393518.93, "terminated_num": 30, "terminated_loss_noself": 31393518.93, "terminated_num_noself": 30}, {"org_name": "The Research Foundation for Mental Hygiene, Inc.", "lat": 40.843076, "lon": -73.944206, "terminated_loss": 331129.0, "terminated_num": 1, "terminated_loss_noself": 331129.0, "terminated_num_noself": 1}, {"org_name": "Fordham University", "lat": 40.86209, "lon": -73.88639, "terminated_loss": 1460325.0, "terminated_num": 1, "terminated_loss_noself": 1460325.0, "terminated_num_noself": 1}, {"org_name": "Pennsylvania State University", "lat": 40.870717, "lon": -77.83415, "terminated_loss": 2811143.02, "terminated_num": 5, "terminated_loss_noself": 2811143.02, "terminated_num_noself": 4}, {"org_name": "Butler Hospital", "lat": 41.843586, "lon": -71.379656, "terminated_loss": 103572.21, "terminated_num": 1, "terminated_loss_noself": 103572.21, "terminated_num_noself": 1}, {"org_name": "University of Massachusetts Medical School Worcester", "lat": 42.2802, "lon": -71.758245, "terminated_loss": 895837.41, "terminated_num": 1, "terminated_loss_noself": 0.0, "terminated_num_noself": 0}, {"org_name": "Function Promoting Therapies, LLC", "lat": 42.33724, "lon": -71.10217, "terminated_loss": 2262195.07, "terminated_num": 1, "terminated_loss_noself": 2262195.07, "terminated_num_noself": 1}, {"org_name": "Henry Ford Health and Michigan State University Health Sciences", "lat": 42.653979, "lon": -84.492032, "terminated_loss": 741785.72, "terminated_num": 3, "terminated_loss_noself": 741785.72, "terminated_num_noself": 3}, {"org_name": "Van Andel Research Institute", "lat": 42.969389, "lon": -85.666402, "terminated_loss": 105648.66, "terminated_num": 1, "terminated_loss_noself": 105648.66, "terminated_num_noself": 1}, {"org_name": "University of Vermont and State Agricultural College", "lat": 44.478282, "lon": -73.201079, "terminated_loss": 139268.71, "terminated_num": 1, "terminated_loss_noself": 139268.71, "terminated_num_noself": 1}, {"org_name": "Boston University", "lat": 42.33639, "lon": -71.07097, "terminated_loss": 4260573.91, "terminated_num": 10, "terminated_loss_noself": 4260573.91, "terminated_num_noself": 9}, {"org_name": "Tufts University", "lat": 42.3498, "lon": -71.06149, "terminated_loss": 6875936.68, "terminated_num": 6, "terminated_loss_noself": 6875936.68, "terminated_num_noself": 6}, {"org_name": "Columbia University", "lat": 40.8415, "lon": -73.9414, "terminated_loss": 1165823708.38857, "terminated_num": 837, "terminated_loss_noself": 1140931965.68857, "terminated_num_noself": 819}, {"org_name": "University of Miami", "lat": 25.713468, "lon": -80.277246, "terminated_loss": 5599436.40098901, "terminated_num": 19, "terminated_loss_noself": 5599436.40098901, "terminated_num_noself": 18}, {"org_name": "University of Hawaii at Manoa", "lat": 21.299198, "lon": -157.820371, "terminated_loss": 187616.0, "terminated_num": 2, "terminated_loss_noself": 187616.0, "terminated_num_noself": 1}, {"org_name": "Florida International University", "lat": 25.761055, "lon": -80.376195, "terminated_loss": 792883.390000001, "terminated_num": 5, "terminated_loss_noself": 792883.390000001, "terminated_num_noself": 5}, {"org_name": "Nova Southeastern University", "lat": 26.07761, "lon": -80.242565, "terminated_loss": 47184.02, "terminated_num": 1, "terminated_loss_noself": 47184.02, "terminated_num_noself": 1}, {"org_name": "University of Central Florida", "lat": 28.601027, "lon": -81.197266, "terminated_loss": 2686678.1, "terminated_num": 5, "terminated_loss_noself": 2686678.1, "terminated_num_noself": 5}, {"org_name": "St. Mary's University", "lat": 29.451933, "lon": -98.560605, "terminated_loss": 57055.58, "terminated_num": 1, "terminated_loss_noself": 57055.58, "terminated_num_noself": 1}, {"org_name": "University of Texas San Antonio", "lat": 29.567119, "lon": -98.605723, "terminated_loss": 2134477.49, "terminated_num": 7, "terminated_loss_noself": 2134477.49, "terminated_num_noself": 7}, {"org_name": "University of Florida", "lat": 29.643443, "lon": -82.349637, "terminated_loss": 4931249.32, "terminated_num": 17, "terminated_loss_noself": 4931249.32, "terminated_num_noself": 13}, {"org_name": "Baylor College of Medicine", "lat": 29.70926, "lon": -95.400851, "terminated_loss": 8003595.54140659, "terminated_num": 17, "terminated_loss_noself": 7996481.63140659, "terminated_num_noself": 13}, {"org_name": "University of Houston", "lat": 29.718091, "lon": -95.336483, "terminated_loss": 3684764.3, "terminated_num": 5, "terminated_loss_noself": 3684764.3, "terminated_num_noself": 5}, {"org_name": "Texas State University", "lat": 29.888774, "lon": -97.937445, "terminated_loss": 682747.45, "terminated_num": 2, "terminated_loss_noself": 472742.53, "terminated_num_noself": 1}, {"org_name": "Tulane University of Louisiana", "lat": 29.935429, "lon": -90.12279, "terminated_loss": 2943544.11, "terminated_num": 4, "terminated_loss_noself": 2943544.11, "terminated_num_noself": 4}, {"org_name": "University of Texas at Austin", "lat": 30.291188, "lon": -97.737568, "terminated_loss": 2421332.99, "terminated_num": 4, "terminated_loss_noself": 2421332.99, "terminated_num_noself": 4}, {"org_name": "Louisiana State University A&M College Baton Rouge", "lat": 30.408018, "lon": -91.188669, "terminated_loss": 965124.34, "terminated_num": 5, "terminated_loss_noself": 965124.34, "terminated_num_noself": 5}, {"org_name": "Florida State University", "lat": 30.441455, "lon": -84.297889, "terminated_loss": 1744354.67, "terminated_num": 5, "terminated_loss_noself": 1744354.67, "terminated_num_noself": 5}, {"org_name": "University of Texas El Paso", "lat": 31.770518, "lon": -106.504149, "terminated_loss": 3369434.96, "terminated_num": 4, "terminated_loss_noself": 3369434.96, "terminated_num_noself": 4}, {"org_name": "University of Arizona", "lat": 32.232844, "lon": -110.959467, "terminated_loss": 5862657.17, "terminated_num": 8, "terminated_loss_noself": 5534625.81, "terminated_num_noself": 7}, {"org_name": "University of Mississippi Medical Center", "lat": 32.328724, "lon": -90.175537, "terminated_loss": 1188995.38, "terminated_num": 4, "terminated_loss_noself": 1188995.38, "terminated_num_noself": 4}, {"org_name": "Auburn University at Auburn", "lat": 32.602139, "lon": -85.508496, "terminated_loss": 336737.29, "terminated_num": 1, "terminated_loss_noself": 336737.29, "terminated_num_noself": 1}, {"org_name": "University of North Texas Health Science Center", "lat": 32.749542, "lon": -97.36903, "terminated_loss": 10373954.0, "terminated_num": 3, "terminated_loss_noself": 10373954.0, "terminated_num_noself": 3}, {"org_name": "San Diego State University", "lat": 32.762178, "lon": -117.069156, "terminated_loss": 1190466.9, "terminated_num": 3, "terminated_loss_noself": 1190466.9, "terminated_num_noself": 3}, {"org_name": "Medical University of South Carolina", "lat": 32.786754, "lon": -79.947265, "terminated_loss": 2183107.93637363, "terminated_num": 9, "terminated_loss_noself": 2183107.93637363, "terminated_num_noself": 8}, {"org_name": "University of California, San Diego", "lat": 32.876991, "lon": -117.24087, "terminated_loss": 44095.97, "terminated_num": 2, "terminated_loss_noself": 44095.97, "terminated_num_noself": 2}, {"org_name": "Scripps Research Institute, the", "lat": 32.903062, "lon": -117.243592, "terminated_loss": 3269536.06, "terminated_num": 1, "terminated_loss_noself": 3269536.06, "terminated_num_noself": 1}, {"org_name": "Arizona State University-Tempe Campus", "lat": 33.423954, "lon": -111.940687, "terminated_loss": 488795.0, "terminated_num": 1, "terminated_loss_noself": 488795.0, "terminated_num_noself": 1}, {"org_name": "University of Alabama at Birmingham", "lat": 33.50591, "lon": -86.799772, "terminated_loss": 17421913.98, "terminated_num": 19, "terminated_loss_noself": 17421913.98, "terminated_num_noself": 19}, {"org_name": "Texas Tech University", "lat": 33.584696, "lon": -101.872767, "terminated_loss": 195715.16, "terminated_num": 1, "terminated_loss_noself": 195715.16, "terminated_num_noself": 1}, {"org_name": "University of California-Irvine", "lat": 33.64852, "lon": -117.82136, "terminated_loss": 629033.565384615, "terminated_num": 6, "terminated_loss_noself": 629033.565384615, "terminated_num_noself": 5}, {"org_name": "Spelman College", "lat": 33.745247, "lon": -84.411462, "terminated_loss": 5488977.23, "terminated_num": 2, "terminated_loss_noself": 5488977.23, "terminated_num_noself": 2}, {"org_name": "Morehouse School of Medicine", "lat": 33.746607, "lon": -84.414781, "terminated_loss": 5293954.39, "terminated_num": 4, "terminated_loss_noself": 5293954.39, "terminated_num_noself": 4}, {"org_name": "Georgia State University", "lat": 33.753531, "lon": -84.384483, "terminated_loss": 930643.24, "terminated_num": 5, "terminated_loss_noself": 930643.24, "terminated_num_noself": 5}, {"org_name": "Emory University", "lat": 33.791247, "lon": -84.3249, "terminated_loss": 8399620.69, "terminated_num": 24, "terminated_loss_noself": 8399620.69, "terminated_num_noself": 22}, {"org_name": "University of Georgia", "lat": 33.931173, "lon": -83.378873, "terminated_loss": 3628960.09, "terminated_num": 5, "terminated_loss_noself": 3628960.09, "terminated_num_noself": 5}, {"org_name": "Loyola Marymount University", "lat": 33.969677, "lon": -118.416139, "terminated_loss": 430184.22, "terminated_num": 1, "terminated_loss_noself": 430184.22, "terminated_num_noself": 1}, {"org_name": "University of South Carolina at Columbia", "lat": 33.999623, "lon": -81.028249, "terminated_loss": 7663798.95, "terminated_num": 9, "terminated_loss_noself": 7663798.95, "terminated_num_noself": 8}, {"org_name": "Rand Corporation", "lat": 34.009659, "lon": -118.490943, "terminated_loss": 4926730.34, "terminated_num": 4, "terminated_loss_noself": 4926730.34, "terminated_num_noself": 4}, {"org_name": "University of Southern California", "lat": 34.017282, "lon": -118.281254, "terminated_loss": 4776247.34, "terminated_num": 17, "terminated_loss_noself": 4776247.34, "terminated_num_noself": 14}, {"org_name": "Kennesaw State University", "lat": 34.034315, "lon": -84.574275, "terminated_loss": 696259.68, "terminated_num": 2, "terminated_loss_noself": 696259.68, "terminated_num_noself": 2}, {"org_name": "University of California Los Angeles", "lat": 34.070199, "lon": -118.45102, "terminated_loss": 1212768.28769231, "terminated_num": 6, "terminated_loss_noself": 1212768.28769231, "terminated_num_noself": 4}, {"org_name": "Children's Hospital of Los Angeles", "lat": 34.098065, "lon": -118.29069, "terminated_loss": 88992.7472527472, "terminated_num": 1, "terminated_loss_noself": 88992.7472527472, "terminated_num_noself": 1}, {"org_name": "University of Mississippi", "lat": 34.36739, "lon": -89.528956, "terminated_loss": 490664.06, "terminated_num": 3, "terminated_loss_noself": 490664.06, "terminated_num_noself": 3}, {"org_name": "University of California Santa Barbara", "lat": 34.431306, "lon": -119.834277, "terminated_loss": 9135.82000000007, "terminated_num": 1, "terminated_loss_noself": 9135.82000000007, "terminated_num_noself": 1}, {"org_name": "University of North Carolina at Pembroke", "lat": 34.694134, "lon": -79.198114, "terminated_loss": 46186.43, "terminated_num": 1, "terminated_loss_noself": 46186.43, "terminated_num_noself": 1}, {"org_name": "University of Arkansas for Medical Sciences", "lat": 34.749005, "lon": -92.320097, "terminated_loss": 2281953.75771784, "terminated_num": 6, "terminated_loss_noself": 2281953.75771784, "terminated_num_noself": 6}, {"org_name": "University of Memphis", "lat": 35.120123, "lon": -89.939705, "terminated_loss": 9625.8, "terminated_num": 1, "terminated_loss_noself": 9625.8, "terminated_num_noself": 1}, {"org_name": "University of North Carolina Charlotte", "lat": 35.301652, "lon": -80.731452, "terminated_loss": 478759.26, "terminated_num": 1, "terminated_loss_noself": 478759.26, "terminated_num_noself": 1}, {"org_name": "University of Oklahoma Health Sciences Center", "lat": 35.47459, "lon": -97.505034, "terminated_loss": 430514.41054945, "terminated_num": 5, "terminated_loss_noself": 430514.41054945, "terminated_num_noself": 5}, {"org_name": "Cherokee Nation", "lat": 35.85318, "lon": -94.99067, "terminated_loss": 1192939.12, "terminated_num": 2, "terminated_loss_noself": 1192939.12, "terminated_num_noself": 2}, {"org_name": "Research Triangle Institute", "lat": 35.9138, "lon": -78.848911, "terminated_loss": 990163.052637362, "terminated_num": 3, "terminated_loss_noself": 990163.052637362, "terminated_num_noself": 2}, {"org_name": "University of North Carolina Chapel Hill", "lat": 35.9316, "lon": -79.057377, "terminated_loss": 16875344.0652747, "terminated_num": 24, "terminated_loss_noself": 12103093.0852747, "terminated_num_noself": 22}, {"org_name": "Innovation Research and Training, Inc.", "lat": 35.964557, "lon": -78.940527, "terminated_loss": 114998.7, "terminated_num": 1, "terminated_loss_noself": 114998.7, "terminated_num_noself": 1}, {"org_name": "Duke University", "lat": 36.007766, "lon": -78.926475, "terminated_loss": 9145575.62615385, "terminated_num": 24, "terminated_loss_noself": 9145575.62615385, "terminated_num_noself": 20}, {"org_name": "University of Nevada Las Vegas", "lat": 36.109517, "lon": -115.141947, "terminated_loss": 3841768.17, "terminated_num": 1, "terminated_loss_noself": 3841768.17, "terminated_num_noself": 1}, {"org_name": "Oklahoma State University Stillwater", "lat": 36.115627, "lon": -97.058038, "terminated_loss": 252506.44, "terminated_num": 1, "terminated_loss_noself": 252506.44, "terminated_num_noself": 1}, {"org_name": "Vanderbilt University", "lat": 36.143381, "lon": -86.803365, "terminated_loss": 5382518.01, "terminated_num": 16, "terminated_loss_noself": 5382518.01, "terminated_num_noself": 14}, {"org_name": "Meharry Medical College", "lat": 36.166904, "lon": -86.806149, "terminated_loss": 2657970.63, "terminated_num": 3, "terminated_loss_noself": 2657970.63, "terminated_num_noself": 3}, {"org_name": "Stanford University", "lat": 37.426852, "lon": -122.17047, "terminated_loss": 9779387.52, "terminated_num": 17, "terminated_loss_noself": 9779387.52, "terminated_num_noself": 17}, {"org_name": "Virginia Commonwealth University", "lat": 37.549807, "lon": -77.452775, "terminated_loss": 7460626.46, "terminated_num": 10, "terminated_loss_noself": 7460626.46, "terminated_num_noself": 8}, {"org_name": "University of California, San Francisco", "lat": 37.767442, "lon": -122.413937, "terminated_loss": 699937.5, "terminated_num": 4, "terminated_loss_noself": 699937.5, "terminated_num_noself": 3}, {"org_name": "Kaiser Foundation Research Institute", "lat": 37.805769, "lon": -122.265214, "terminated_loss": 312371.42, "terminated_num": 1, "terminated_loss_noself": 0.0, "terminated_num_noself": 0}, {"org_name": "University of California Berkeley", "lat": 37.870017, "lon": -122.268624, "terminated_loss": 808333.94, "terminated_num": 2, "terminated_loss_noself": 808333.94, "terminated_num_noself": 2}, {"org_name": "University of the Pacific-Stockton", "lat": 37.984345, "lon": -121.309964, "terminated_loss": 425200.62, "terminated_num": 1, "terminated_loss_noself": 425200.62, "terminated_num_noself": 1}, {"org_name": "University of Kentucky", "lat": 38.040959, "lon": -84.505885, "terminated_loss": 3078128.93, "terminated_num": 6, "terminated_loss_noself": 3078128.93, "terminated_num_noself": 5}, {"org_name": "University of Virginia", "lat": 38.050527, "lon": -78.500531, "terminated_loss": 23214402.09, "terminated_num": 9, "terminated_loss_noself": 23214402.09, "terminated_num_noself": 7}, {"org_name": "University of Louisville", "lat": 38.215024, "lon": -85.760145, "terminated_loss": 2988620.49, "terminated_num": 7, "terminated_loss_noself": 2988620.49, "terminated_num_noself": 7}, {"org_name": "University of California at Davis", "lat": 38.543366, "lon": -121.72946, "terminated_loss": 5415163.48, "terminated_num": 15, "terminated_loss_noself": 5415163.48, "terminated_num_noself": 13}, {"org_name": "Washington University", "lat": 38.664368, "lon": -90.323797, "terminated_loss": 14913300.23, "terminated_num": 25, "terminated_loss_noself": 13827379.57, "terminated_num_noself": 23}, {"org_name": "George Washington University", "lat": 38.898075, "lon": -77.043933, "terminated_loss": 3137610.58, "terminated_num": 5, "terminated_loss_noself": 3137610.58, "terminated_num_noself": 5}, {"org_name": "Gerontological Society of America", "lat": 38.903389, "lon": -77.029146, "terminated_loss": 1043970.63, "terminated_num": 2, "terminated_loss_noself": 1043970.63, "terminated_num_noself": 1}, {"org_name": "Whitman-Walker Institute, Inc.", "lat": 38.9127, "lon": -77.031423, "terminated_loss": 1532010.33, "terminated_num": 2, "terminated_loss_noself": 1532010.33, "terminated_num_noself": 2}, {"org_name": "Children's Research Institute", "lat": 38.927274, "lon": -77.014396, "terminated_loss": 653805.0, "terminated_num": 1, "terminated_loss_noself": 653805.0, "terminated_num_noself": 1}, {"org_name": "Us Helping Us, People Into Living, Inc.", "lat": 38.935098, "lon": -77.024402, "terminated_loss": 114194.0, "terminated_num": 1, "terminated_loss_noself": 114194.0, "terminated_num_noself": 1}, {"org_name": "University of Maryland, College Park", "lat": 38.992333, "lon": -76.952986, "terminated_loss": 258499.91, "terminated_num": 2, "terminated_loss_noself": 258499.91, "terminated_num_noself": 2}, {"org_name": "University of Cincinnati", "lat": 39.129719, "lon": -84.520554, "terminated_loss": 3449212.1, "terminated_num": 5, "terminated_loss_noself": 3449212.1, "terminated_num_noself": 5}, {"org_name": "University of Maryland Baltimore", "lat": 39.292248, "lon": -76.625629, "terminated_loss": 159083.54, "terminated_num": 2, "terminated_loss_noself": 159083.54, "terminated_num_noself": 2}, {"org_name": "Johns Hopkins University", "lat": 39.325256, "lon": -76.605131, "terminated_loss": 10992212.54, "terminated_num": 22, "terminated_loss_noself": 10992212.54, "terminated_num_noself": 22}, {"org_name": "University of Nevada Reno", "lat": 39.545077, "lon": -119.818277, "terminated_loss": 249699.264285714, "terminated_num": 3, "terminated_loss_noself": 249699.264285714, "terminated_num_noself": 3}, {"org_name": "University of Denver (Colorado Seminary)", "lat": 39.676639, "lon": -104.959481, "terminated_loss": 954683.4, "terminated_num": 1, "terminated_loss_noself": 954683.4, "terminated_num_noself": 1}, {"org_name": "Denver Health and Hospital Authority", "lat": 39.727302, "lon": -104.991569, "terminated_loss": 138989.95, "terminated_num": 1, "terminated_loss_noself": 138989.95, "terminated_num_noself": 1}, {"org_name": "University of Colorado Denver", "lat": 39.745098, "lon": -104.837605, "terminated_loss": 2372697.36868132, "terminated_num": 10, "terminated_loss_noself": 2372697.36868132, "terminated_num_noself": 9}, {"org_name": "Children's Hospital of Philadelphia", "lat": 39.946632, "lon": -75.196604, "terminated_loss": 1488364.82285714, "terminated_num": 6, "terminated_loss_noself": 1488364.82285714, "terminated_num_noself": 6}, {"org_name": "University of Pennsylvania", "lat": 39.953462, "lon": -75.193983, "terminated_loss": 12196249.4508791, "terminated_num": 24, "terminated_loss_noself": 12196249.4508791, "terminated_num_noself": 22}, {"org_name": "Drexel University", "lat": 39.954073, "lon": -75.186541, "terminated_loss": 5943259.89, "terminated_num": 6, "terminated_loss_noself": 5943259.89, "terminated_num_noself": 6}, {"org_name": "Temple University of the Commonwealth", "lat": 39.980272, "lon": -75.157051, "terminated_loss": 1686625.88131868, "terminated_num": 5, "terminated_loss_noself": 1686625.88131868, "terminated_num_noself": 5}, {"org_name": "Ohio State University", "lat": 39.999598, "lon": -83.033131, "terminated_loss": 10483897.6, "terminated_num": 13, "terminated_loss_noself": 10483897.6, "terminated_num_noself": 13}, {"org_name": "University of Illinois at Urbana-Champaign", "lat": 40.116857, "lon": -88.228755, "terminated_loss": 33786.83, "terminated_num": 1, "terminated_loss_noself": 33786.83, "terminated_num_noself": 1}, {"org_name": "Pennsylvania State University Hershey Medical Center", "lat": 40.264414, "lon": -76.674014, "terminated_loss": 4761871.13, "terminated_num": 4, "terminated_loss_noself": 4761871.13, "terminated_num_noself": 4}, {"org_name": "Princeton University", "lat": 40.345441, "lon": -74.655866, "terminated_loss": 165078.49, "terminated_num": 4, "terminated_loss_noself": 136793.59, "terminated_num_noself": 2}, {"org_name": "Purdue University", "lat": 40.41872, "lon": -86.910361, "terminated_loss": 281859.67, "terminated_num": 4, "terminated_loss_noself": 281859.67, "terminated_num_noself": 3}, {"org_name": "Duquesne University", "lat": 40.437818, "lon": -79.993649, "terminated_loss": 92040.95, "terminated_num": 1, "terminated_loss_noself": 92040.95, "terminated_num_noself": 1}, {"org_name": "University of Pittsburgh at Pittsburgh", "lat": 40.440909, "lon": -79.959125, "terminated_loss": 13060428.23, "terminated_num": 26, "terminated_loss_noself": 12876573.69, "terminated_num_noself": 23}, {"org_name": "Rutgers Biomedical and Health Sciences", "lat": 40.520984, "lon": -74.473247, "terminated_loss": 616068.42, "terminated_num": 2, "terminated_loss_noself": 616068.42, "terminated_num_noself": 2}, {"org_name": "New York University School of Medicine", "lat": 40.669895, "lon": -73.974354, "terminated_loss": 3592178.67, "terminated_num": 8, "terminated_loss_noself": 3592178.67, "terminated_num_noself": 7}, {"org_name": "New York University", "lat": 40.729659, "lon": -73.997018, "terminated_loss": 2182192.58, "terminated_num": 5, "terminated_loss_noself": 2182192.58, "terminated_num_noself": 4}, {"org_name": "New School University", "lat": 40.735382, "lon": -73.997241, "terminated_loss": 26705.17, "terminated_num": 1, "terminated_loss_noself": 26705.17, "terminated_num_noself": 1}, {"org_name": "Ecohealth Alliance, Inc.", "lat": 40.754061, "lon": -73.998951, "terminated_loss": 5716314.4, "terminated_num": 4, "terminated_loss_noself": 0.0, "terminated_num_noself": 0}, {"org_name": "Sloan-Kettering Inst Can Research", "lat": 40.764045, "lon": -73.956024, "terminated_loss": 116261.0, "terminated_num": 2, "terminated_loss_noself": 116261.0, "terminated_num_noself": 1}, {"org_name": "University of Utah", "lat": 40.764542, "lon": -111.850317, "terminated_loss": 1852239.23, "terminated_num": 10, "terminated_loss_noself": 1852239.23, "terminated_num_noself": 9}, {"org_name": "New York Blood Center", "lat": 40.76519, "lon": -73.959922, "terminated_loss": 432943.36, "terminated_num": 2, "terminated_loss_noself": 432943.36, "terminated_num_noself": 2}, {"org_name": "Hunter College", "lat": 40.768737, "lon": -73.965182, "terminated_loss": 305834.81, "terminated_num": 2, "terminated_loss_noself": 305834.81, "terminated_num_noself": 2}, {"org_name": "Icahn School of Medicine at Mount Sinai", "lat": 40.790284, "lon": -73.946781, "terminated_loss": 6874738.33, "terminated_num": 13, "terminated_loss_noself": 6874738.33, "terminated_num_noself": 10}, {"org_name": "City College of New York", "lat": 40.819407, "lon": -73.950169, "terminated_loss": 182932.4, "terminated_num": 1, "terminated_loss_noself": 182932.4, "terminated_num_noself": 1}, {"org_name": "University of Nebraska Lincoln", "lat": 40.823017, "lon": -96.673442, "terminated_loss": 529795.06, "terminated_num": 2, "terminated_loss_noself": 529795.06, "terminated_num_noself": 2}, {"org_name": "Albert Einstein College of Medicine", "lat": 40.85103, "lon": -73.844379, "terminated_loss": 2071572.74, "terminated_num": 12, "terminated_loss_noself": 2071572.74, "terminated_num_noself": 12}, {"org_name": "Hackensack University Medical Center", "lat": 40.883415, "lon": -74.055652, "terminated_loss": 84046.33, "terminated_num": 1, "terminated_loss_noself": 84046.33, "terminated_num_noself": 1}, {"org_name": "State University New York Stony Brook", "lat": 40.914561, "lon": -73.125169, "terminated_loss": 200957.0, "terminated_num": 1, "terminated_loss_noself": 200957.0, "terminated_num_noself": 1}, {"org_name": "Silverbills Inc.", "lat": 40.946852, "lon": -73.772045, "terminated_loss": 114680.93, "terminated_num": 1, "terminated_loss_noself": 114680.93, "terminated_num_noself": 1}, {"org_name": "Yale University", "lat": 41.310925, "lon": -72.926428, "terminated_loss": 10810502.55, "terminated_num": 28, "terminated_loss_noself": 10771680.55, "terminated_num_noself": 25}, {"org_name": "Pro-Change Behavior Systems, Inc.", "lat": 41.451027, "lon": -71.497523, "terminated_loss": 82363.25, "terminated_num": 1, "terminated_loss_noself": 82363.25, "terminated_num_noself": 1}, {"org_name": "Case Western Reserve University", "lat": 41.502739, "lon": -81.607334, "terminated_loss": 3361931.34, "terminated_num": 8, "terminated_loss_noself": 3361931.34, "terminated_num_noself": 7}, {"org_name": "University of Iowa", "lat": 41.664405, "lon": -91.542152, "terminated_loss": 432120.417027027, "terminated_num": 6, "terminated_loss_noself": 432120.417027027, "terminated_num_noself": 4}, {"org_name": "National Opinion Research Center", "lat": 41.785875, "lon": -87.597545, "terminated_loss": 154721.84, "terminated_num": 1, "terminated_loss_noself": 154721.84, "terminated_num_noself": 1}, {"org_name": "University of Chicago", "lat": 41.789554, "lon": -87.601172, "terminated_loss": 8182472.84135371, "terminated_num": 12, "terminated_loss_noself": 8182472.84135371, "terminated_num_noself": 12}, {"org_name": "Emma Pendleton Bradley Hospital", "lat": 41.792379, "lon": -71.367401, "terminated_loss": 324439.17, "terminated_num": 2, "terminated_loss_noself": 324439.17, "terminated_num_noself": 2}, {"org_name": "Resilient Games Studio, LLC", "lat": 41.798959, "lon": -87.598077, "terminated_loss": 84777.53, "terminated_num": 1, "terminated_loss_noself": 84777.53, "terminated_num_noself": 1}, {"org_name": "University of Connecticut Storrs", "lat": 41.811419, "lon": -72.247553, "terminated_loss": 387868.183956044, "terminated_num": 4, "terminated_loss_noself": 387868.183956044, "terminated_num_noself": 4}, {"org_name": "Rhode Island Hospital", "lat": 41.811681, "lon": -71.409371, "terminated_loss": 517909.65, "terminated_num": 4, "terminated_loss_noself": 517909.65, "terminated_num_noself": 2}, {"org_name": "Brown University", "lat": 41.826136, "lon": -71.404513, "terminated_loss": 226020994.51, "terminated_num": 192, "terminated_loss_noself": 226020994.51, "terminated_num_noself": 190}, {"org_name": "University of Illinois at Chicago", "lat": 41.871509, "lon": -87.667721, "terminated_loss": 4331331.14, "terminated_num": 7, "terminated_loss_noself": 4331331.14, "terminated_num_noself": 7}, {"org_name": "Rush University Medical Center", "lat": 41.87506, "lon": -87.668327, "terminated_loss": 1794916.95, "terminated_num": 3, "terminated_loss_noself": 1794916.95, "terminated_num_noself": 3}, {"org_name": "Lurie Children's Hospital of Chicago", "lat": 41.896663, "lon": -87.622919, "terminated_loss": 179368.0, "terminated_num": 1, "terminated_loss_noself": 179368.0, "terminated_num_noself": 1}, {"org_name": "Endeavor Health Clinical Operations", "lat": 42.064695, "lon": -87.689868, "terminated_loss": 1380567.55, "terminated_num": 1, "terminated_loss_noself": 1380567.55, "terminated_num_noself": 1}, {"org_name": "Eastern Michigan University", "lat": 42.233132, "lon": -83.623767, "terminated_loss": 952548.23, "terminated_num": 1, "terminated_loss_noself": 952548.23, "terminated_num_noself": 1}, {"org_name": "University of Michigan at Ann Arbor", "lat": 42.275494, "lon": -83.743038, "terminated_loss": 18875080.96, "terminated_num": 26, "terminated_loss_noself": 18875080.96, "terminated_num_noself": 22}, {"org_name": "Harvard School of Public Health", "lat": 42.335306, "lon": -71.102775, "terminated_loss": 575944227.33, "terminated_num": 151, "terminated_loss_noself": 566043419.18, "terminated_num_noself": 148}, {"org_name": "Boston Medical Center", "lat": 42.336854, "lon": -71.070881, "terminated_loss": 171615.54, "terminated_num": 2, "terminated_loss_noself": 171615.54, "terminated_num_noself": 2}, {"org_name": "Boston College", "lat": 42.336956, "lon": -71.170504, "terminated_loss": 3376275.21, "terminated_num": 5, "terminated_loss_noself": 3376275.21, "terminated_num_noself": 4}, {"org_name": "Boston Children's Hospital", "lat": 42.337481, "lon": -71.104964, "terminated_loss": 4356370.14, "terminated_num": 10, "terminated_loss_noself": 4356370.14, "terminated_num_noself": 10}, {"org_name": "Beth Israel Deaconess Medical Center", "lat": 42.33982, "lon": -71.10568, "terminated_loss": 474125.39, "terminated_num": 3, "terminated_loss_noself": 474125.39, "terminated_num_noself": 3}, {"org_name": "Northeastern University", "lat": 42.340048, "lon": -71.088892, "terminated_loss": 1129966.36, "terminated_num": 4, "terminated_loss_noself": 1129966.36, "terminated_num_noself": 4}, {"org_name": "Fenway Community Health Center", "lat": 42.34412, "lon": -71.098412, "terminated_loss": 411683.52, "terminated_num": 1, "terminated_loss_noself": 411683.52, "terminated_num_noself": 1}, {"org_name": "Broad Institute, Inc.", "lat": 42.363082, "lon": -71.087893, "terminated_loss": 7453039.33, "terminated_num": 2, "terminated_loss_noself": 7453039.33, "terminated_num_noself": 2}, {"org_name": "Harvard University", "lat": 42.369697, "lon": -71.11193, "terminated_loss": 168402198.68, "terminated_num": 135, "terminated_loss_noself": 167468171.44, "terminated_num_noself": 131}, {"org_name": "Cambridge Health Alliance", "lat": 42.374417, "lon": -71.104436, "terminated_loss": 1455238.7, "terminated_num": 2, "terminated_loss_noself": 1455238.7, "terminated_num_noself": 2}, {"org_name": "University of Massachusetts Amherst", "lat": 42.386914, "lon": -72.521131, "terminated_loss": 65584.89, "terminated_num": 1, "terminated_loss_noself": 65584.89, "terminated_num_noself": 1}, {"org_name": "Cornell University", "lat": 42.438, "lon": -76.4625, "terminated_loss": 121430413.86, "terminated_num": 123, "terminated_loss_noself": 121430413.86, "terminated_num_noself": 123}, {"org_name": "Michigan State University", "lat": 42.653979, "lon": -84.492032, "terminated_loss": 497104.99, "terminated_num": 4, "terminated_loss_noself": 497104.99, "terminated_num_noself": 3}, {"org_name": "Roswell Park Cancer Institute Corp", "lat": 42.873378, "lon": -78.869243, "terminated_loss": 2093741.69, "terminated_num": 1, "terminated_loss_noself": 2093741.69, "terminated_num_noself": 1}, {"org_name": "State University of New York at Buffalo", "lat": 43.003074, "lon": -78.785924, "terminated_loss": 3868.99, "terminated_num": 1, "terminated_loss_noself": 3868.99, "terminated_num_noself": 1}, {"org_name": "Marquette University", "lat": 43.038728, "lon": -87.923307, "terminated_loss": 127391.05, "terminated_num": 1, "terminated_loss_noself": 127391.05, "terminated_num_noself": 1}, {"org_name": "Medical College of Wisconsin", "lat": 43.04575, "lon": -88.020374, "terminated_loss": 1474416.94, "terminated_num": 5, "terminated_loss_noself": 1474416.94, "terminated_num_noself": 5}, {"org_name": "University of Wisconsin-Madison", "lat": 43.068519, "lon": -89.400858, "terminated_loss": 87075.93, "terminated_num": 2, "terminated_loss_noself": 60562.11, "terminated_num_noself": 1}, {"org_name": "University of Rochester", "lat": 43.131774, "lon": -77.63546, "terminated_loss": 6854942.1345768, "terminated_num": 14, "terminated_loss_noself": 6854942.1345768, "terminated_num_noself": 9}, {"org_name": "Mayo Clinic Rochester", "lat": 44.02432, "lon": -92.46011, "terminated_loss": 2713.57000000001, "terminated_num": 3, "terminated_loss_noself": 2713.57000000001, "terminated_num_noself": 1}, {"org_name": "University of Oregon", "lat": 44.045509, "lon": -123.069741, "terminated_loss": 400243.0, "terminated_num": 1, "terminated_loss_noself": 400243.0, "terminated_num_noself": 1}, {"org_name": "Iris Media, Inc.", "lat": 44.048722, "lon": -123.088476, "terminated_loss": 102337.86, "terminated_num": 1, "terminated_loss_noself": 102337.86, "terminated_num_noself": 1}, {"org_name": "Healthpartners Institute", "lat": 44.85364, "lon": -93.225576, "terminated_loss": 1178254.83, "terminated_num": 2, "terminated_loss_noself": 1178254.83, "terminated_num_noself": 2}, {"org_name": "University of Minnesota", "lat": 44.975143, "lon": -93.227003, "terminated_loss": 6472680.12, "terminated_num": 4, "terminated_loss_noself": 6472680.12, "terminated_num_noself": 3}, {"org_name": "Oregon Health & Science University", "lat": 45.49882, "lon": -122.685647, "terminated_loss": 725347.12, "terminated_num": 4, "terminated_loss_noself": 725347.12, "terminated_num_noself": 4}, {"org_name": "Montana State University - Bozeman", "lat": 45.661963, "lon": -111.059937, "terminated_loss": 347004.0, "terminated_num": 2, "terminated_loss_noself": 347004.0, "terminated_num_noself": 1}, {"org_name": "Washington State University", "lat": 46.728892, "lon": -117.155742, "terminated_loss": 5257898.36, "terminated_num": 4, "terminated_loss_noself": 5257898.36, "terminated_num_noself": 4}, {"org_name": "University of Idaho", "lat": 46.730287, "lon": -116.996847, "terminated_loss": 243447.5, "terminated_num": 1, "terminated_loss_noself": 243447.5, "terminated_num_noself": 1}, {"org_name": "University of Montana", "lat": 46.860203, "lon": -113.983723, "terminated_loss": 137708.29, "terminated_num": 2, "terminated_loss_noself": 137708.29, "terminated_num_noself": 1}, {"org_name": "Institute for Systems Biology", "lat": 47.622538, "lon": -122.337533, "terminated_loss": 643150.0, "terminated_num": 2, "terminated_loss_noself": 643150.0, "terminated_num_noself": 2}, {"org_name": "Fred Hutchinson Cancer Center", "lat": 47.626482, "lon": -122.329606, "terminated_loss": 1863501.68208791, "terminated_num": 6, "terminated_loss_noself": 1863501.68208791, "terminated_num_noself": 6}, {"org_name": "University of Washington", "lat": 47.660307, "lon": -122.315168, "terminated_loss": 367602.85, "terminated_num": 2, "terminated_loss_noself": 249090.0, "terminated_num_noself": 1}, {"org_name": "Seattle Children's Hospital", "lat": 47.66243, "lon": -122.282291, "terminated_loss": 1014544.41, "terminated_num": 3, "terminated_loss_noself": 1014544.41, "terminated_num_noself": 3}, {"org_name": "University of Alaska Anchorage", "lat": 61.190646, "lon": -149.818129, "terminated_loss": 33538.85, "terminated_num": 1, "terminated_loss_noself": 33538.85, "terminated_num_noself": 1}, {"org_name": "Colliga Apps Corp.", "lat": 25.763047, "lon": -80.190448, "terminated_loss": 178325.0, "terminated_num": 1, "terminated_loss_noself": 178325.0, "terminated_num_noself": 1}, {"org_name": "University of South Florida", "lat": 28.074039, "lon": -82.395963, "terminated_loss": 13839.13, "terminated_num": 2, "terminated_loss_noself": 13839.13, "terminated_num_noself": 1}, {"org_name": "University of Texas Health Science Center", "lat": 29.513091, "lon": -98.577742, "terminated_loss": 4487655.10065934, "terminated_num": 8, "terminated_loss_noself": 4487655.10065934, "terminated_num_noself": 8}, {"org_name": "University of Texas Health Science Center Houston", "lat": 29.703025, "lon": -95.403303, "terminated_loss": 1105951.57, "terminated_num": 5, "terminated_loss_noself": 1105951.57, "terminated_num_noself": 5}, {"org_name": "LSU Health Scienes Center", "lat": 29.957378, "lon": -90.082793, "terminated_loss": 398574.43, "terminated_num": 2, "terminated_loss_noself": 398574.43, "terminated_num_noself": 2}, {"org_name": "Dillard University", "lat": 29.996211, "lon": -90.065957, "terminated_loss": 267305.26, "terminated_num": 1, "terminated_loss_noself": 267305.26, "terminated_num_noself": 1}, {"org_name": "Prairie View\u00a0A&M\u00a0University\u00a0", "lat": 30.081335, "lon": -95.992865, "terminated_loss": 31770.96, "terminated_num": 1, "terminated_loss_noself": 31770.96, "terminated_num_noself": 1}, {"org_name": "Mayo Clinic Jacksonville", "lat": 30.264703, "lon": -81.444793, "terminated_loss": 6564.86, "terminated_num": 1, "terminated_loss_noself": 6564.86, "terminated_num_noself": 1}, {"org_name": "University of North Florida", "lat": 30.270668, "lon": -81.510431, "terminated_loss": 124502.12, "terminated_num": 1, "terminated_loss_noself": 124502.12, "terminated_num_noself": 1}, {"org_name": "Texas Engineering Experiment Station", "lat": 30.561542, "lon": -96.253207, "terminated_loss": 646122.0, "terminated_num": 1, "terminated_loss_noself": 646122.0, "terminated_num_noself": 1}, {"org_name": "Texas A&M University", "lat": 30.605876, "lon": -96.368771, "terminated_loss": 1835871.91, "terminated_num": 9, "terminated_loss_noself": 1835871.91, "terminated_num_noself": 8}, {"org_name": "Sam Houston State University", "lat": 30.715211, "lon": -95.549345, "terminated_loss": 60143.62, "terminated_num": 1, "terminated_loss_noself": 60143.62, "terminated_num_noself": 1}, {"org_name": "Baylor University", "lat": 31.555713, "lon": -97.121401, "terminated_loss": 2180559.0, "terminated_num": 1, "terminated_loss_noself": 2180559.0, "terminated_num_noself": 1}, {"org_name": "University of Texas Arlington", "lat": 32.728201, "lon": -97.112604, "terminated_loss": 1260984.22, "terminated_num": 2, "terminated_loss_noself": 1260984.22, "terminated_num_noself": 2}, {"org_name": "Scripps Health", "lat": 32.887742, "lon": -117.223797, "terminated_loss": 202964.0, "terminated_num": 1, "terminated_loss_noself": 202964.0, "terminated_num_noself": 1}, {"org_name": "Claflin University", "lat": 33.495919, "lon": -80.855463, "terminated_loss": 699563.4, "terminated_num": 1, "terminated_loss_noself": 699563.4, "terminated_num_noself": 1}, {"org_name": "Mayo Clinic Arizona", "lat": 33.589113, "lon": -111.79394, "terminated_loss": 846373.05, "terminated_num": 2, "terminated_loss_noself": 846373.05, "terminated_num_noself": 2}, {"org_name": "Georgia Institute of Technology", "lat": 33.781897, "lon": -84.404009, "terminated_loss": 97206.95, "terminated_num": 3, "terminated_loss_noself": 97206.95, "terminated_num_noself": 2}, {"org_name": "California State University Los Angeles", "lat": 34.062539, "lon": -118.169044, "terminated_loss": 50954.52, "terminated_num": 1, "terminated_loss_noself": 50954.52, "terminated_num_noself": 1}, {"org_name": "California Institute of Technology", "lat": 34.134332, "lon": -118.12652, "terminated_loss": 625874.0, "terminated_num": 1, "terminated_loss_noself": 625874.0, "terminated_num_noself": 1}, {"org_name": "California State University San Bernardino", "lat": 34.176782, "lon": -117.330185, "terminated_loss": 715994.85, "terminated_num": 1, "terminated_loss_noself": 715994.85, "terminated_num_noself": 1}, {"org_name": "Clemson University", "lat": 34.673146, "lon": -82.823962, "terminated_loss": 269784.54, "terminated_num": 3, "terminated_loss_noself": 269784.54, "terminated_num_noself": 2}, {"org_name": "Fayetteville State University", "lat": 35.071547, "lon": -78.894454, "terminated_loss": 94529.28, "terminated_num": 1, "terminated_loss_noself": 94529.28, "terminated_num_noself": 1}, {"org_name": "St. Jude Children's Research Hospital", "lat": 35.155607, "lon": -90.045279, "terminated_loss": 544277.0, "terminated_num": 2, "terminated_loss_noself": 544277.0, "terminated_num_noself": 2}, {"org_name": "University of Oklahoma", "lat": 35.209223, "lon": -97.443781, "terminated_loss": 1150230.0, "terminated_num": 1, "terminated_loss_noself": 1150230.0, "terminated_num_noself": 1}, {"org_name": "Oklahoma Medical Research Foundation", "lat": 35.482988, "lon": -97.49781, "terminated_loss": 324164.61, "terminated_num": 1, "terminated_loss_noself": 324164.61, "terminated_num_noself": 1}, {"org_name": "Equiti Foods, LLC", "lat": 35.901309, "lon": -79.061049, "terminated_loss": 55120.0, "terminated_num": 1, "terminated_loss_noself": 55120.0, "terminated_num_noself": 1}, {"org_name": "North Carolina Central University", "lat": 35.97467, "lon": -78.898054, "terminated_loss": 224681.54, "terminated_num": 1, "terminated_loss_noself": 224681.54, "terminated_num_noself": 1}, {"org_name": "University of North Carolina Greensboro", "lat": 36.065048, "lon": -79.808967, "terminated_loss": 106074.32, "terminated_num": 1, "terminated_loss_noself": 106074.32, "terminated_num_noself": 1}, {"org_name": "North Carolina A&T State University", "lat": 36.074178, "lon": -79.775965, "terminated_loss": 107518.95, "terminated_num": 2, "terminated_loss_noself": 107518.95, "terminated_num_noself": 2}, {"org_name": "Tennessee State University", "lat": 36.168333, "lon": -86.828524, "terminated_loss": 153224.53, "terminated_num": 1, "terminated_loss_noself": 153224.53, "terminated_num_noself": 1}, {"org_name": "Old Dominion University", "lat": 36.888989, "lon": -76.303478, "terminated_loss": 81630.1800000001, "terminated_num": 2, "terminated_loss_noself": 81630.1800000001, "terminated_num_noself": 2}, {"org_name": "Western Kentucky University", "lat": 36.986798, "lon": -86.455375, "terminated_loss": 274169.0, "terminated_num": 1, "terminated_loss_noself": 274169.0, "terminated_num_noself": 1}, {"org_name": "Hampton University", "lat": 37.025661, "lon": -76.347732, "terminated_loss": 106212.0, "terminated_num": 1, "terminated_loss_noself": 106212.0, "terminated_num_noself": 1}, {"org_name": "Fort Lewis College", "lat": 37.274983, "lon": -107.872039, "terminated_loss": 307317.49, "terminated_num": 1, "terminated_loss_noself": 307317.49, "terminated_num_noself": 1}, {"org_name": "San Francisco Department of Public Health", "lat": 37.778128, "lon": -122.418652, "terminated_loss": 903447.0, "terminated_num": 1, "terminated_loss_noself": 0.0, "terminated_num_noself": 0}, {"org_name": "Isa Associates, Inc.", "lat": 38.805407, "lon": -77.039842, "terminated_loss": 1223918.19, "terminated_num": 1, "terminated_loss_noself": 1223918.19, "terminated_num_noself": 1}, {"org_name": "American Psychological Association", "lat": 38.89984, "lon": -77.007538, "terminated_loss": 277691.22, "terminated_num": 1, "terminated_loss_noself": 277691.22, "terminated_num_noself": 1}, {"org_name": "Endocrine Society", "lat": 38.904115, "lon": -77.046163, "terminated_loss": 1361923.0, "terminated_num": 1, "terminated_loss_noself": 1361923.0, "terminated_num_noself": 1}, {"org_name": "Georgetown University", "lat": 38.905206, "lon": -77.07547, "terminated_loss": 733753.38, "terminated_num": 2, "terminated_loss_noself": 733753.38, "terminated_num_noself": 2}, {"org_name": "Howard University", "lat": 38.923138, "lon": -77.021576, "terminated_loss": 2314508.01, "terminated_num": 2, "terminated_loss_noself": 2314508.01, "terminated_num_noself": 2}, {"org_name": "Academic Pediatric Association", "lat": 38.937467, "lon": -77.176943, "terminated_loss": 858505.96, "terminated_num": 1, "terminated_loss_noself": 858505.96, "terminated_num_noself": 1}, {"org_name": "University of Missouri-Columbia", "lat": 38.948231, "lon": -92.327335, "terminated_loss": 6180720.63, "terminated_num": 7, "terminated_loss_noself": 6180720.63, "terminated_num_noself": 7}, {"org_name": "American Gastroenterological Association Institute", "lat": 38.989333, "lon": -77.099203, "terminated_loss": 548628.0, "terminated_num": 1, "terminated_loss_noself": 548628.0, "terminated_num_noself": 1}, {"org_name": "Delaware State University", "lat": 39.189379, "lon": -75.541169, "terminated_loss": 7573755.23, "terminated_num": 3, "terminated_loss_noself": 7573755.23, "terminated_num_noself": 3}, {"org_name": "University of Delaware", "lat": 39.714507, "lon": -75.738715, "terminated_loss": 8200.54945054945, "terminated_num": 2, "terminated_loss_noself": 8200.54945054945, "terminated_num_noself": 1}, {"org_name": "Indiana University Indianapolis", "lat": 39.779213, "lon": -86.175288, "terminated_loss": 4515513.77, "terminated_num": 10, "terminated_loss_noself": 4515513.77, "terminated_num_noself": 9}, {"org_name": "Thomas Jefferson University", "lat": 39.948207, "lon": -75.157825, "terminated_loss": 856620.23, "terminated_num": 2, "terminated_loss_noself": 856620.23, "terminated_num_noself": 2}, {"org_name": "Colorado State University", "lat": 40.57951, "lon": -105.081267, "terminated_loss": 484365.29, "terminated_num": 3, "terminated_loss_noself": 484365.29, "terminated_num_noself": 3}, {"org_name": "New Jersey Institute of Technology", "lat": 40.742916, "lon": -74.176244, "terminated_loss": 753764.0, "terminated_num": 1, "terminated_loss_noself": 753764.0, "terminated_num_noself": 1}, {"org_name": "Hospital for Special Surgery", "lat": 40.765324, "lon": -73.953947, "terminated_loss": 676204.0, "terminated_num": 1, "terminated_loss_noself": 676204.0, "terminated_num_noself": 1}, {"org_name": "Cold Spring Harbor Laboratory", "lat": 40.86755, "lon": -73.473456, "terminated_loss": 274670.22, "terminated_num": 1, "terminated_loss_noself": 274670.22, "terminated_num_noself": 1}, {"org_name": "Kent State University", "lat": 41.152425, "lon": -81.337881, "terminated_loss": 419715.0, "terminated_num": 1, "terminated_loss_noself": 419715.0, "terminated_num_noself": 1}, {"org_name": "University of Nebraska Medical Center", "lat": 41.265996, "lon": -96.010026, "terminated_loss": 1378237.56, "terminated_num": 4, "terminated_loss_noself": 1378237.56, "terminated_num_noself": 4}, {"org_name": "University of Notre Dame", "lat": 41.693901, "lon": -86.239284, "terminated_loss": 673373.18, "terminated_num": 3, "terminated_loss_noself": 673373.18, "terminated_num_noself": 3}, {"org_name": "University of Connecticut School of Medicine", "lat": 41.734182, "lon": -72.793791, "terminated_loss": 348584.91, "terminated_num": 2, "terminated_loss_noself": 348584.91, "terminated_num_noself": 2}, {"org_name": "Northwestern University", "lat": 42.050479, "lon": -87.680046, "terminated_loss": 559327399.785055, "terminated_num": 531, "terminated_loss_noself": 559199101.805055, "terminated_num_noself": 529}, {"org_name": "Worcester Polytechnic Institute", "lat": 42.274036, "lon": -71.806691, "terminated_loss": 115450.45, "terminated_num": 2, "terminated_loss_noself": 115450.45, "terminated_num_noself": 1}, {"org_name": "Harvard Medical School", "lat": 42.335672, "lon": -71.104237, "terminated_loss": 433581508.79, "terminated_num": 337, "terminated_loss_noself": 433572100.79, "terminated_num_noself": 333}, {"org_name": "Wayne State University", "lat": 42.357466, "lon": -83.065294, "terminated_loss": 822587.71, "terminated_num": 6, "terminated_loss_noself": 822587.71, "terminated_num_noself": 5}, {"org_name": "McLean Hospital", "lat": 42.393619, "lon": -71.191142, "terminated_loss": 1846163.0, "terminated_num": 3, "terminated_loss_noself": 1846163.0, "terminated_num_noself": 3}, {"org_name": "Rensselaer Polytechnic Institute", "lat": 42.732865, "lon": -73.683493, "terminated_loss": 993814.0, "terminated_num": 1, "terminated_loss_noself": 993814.0, "terminated_num_noself": 1}, {"org_name": "Syracuse University", "lat": 43.041575, "lon": -76.133784, "terminated_loss": 13429.98, "terminated_num": 1, "terminated_loss_noself": 13429.98, "terminated_num_noself": 1}, {"org_name": "Rochester Institute of Technology", "lat": 43.092171, "lon": -77.674767, "terminated_loss": 76536.09, "terminated_num": 1, "terminated_loss_noself": 76536.09, "terminated_num_noself": 1}, {"org_name": "Central Michigan University", "lat": 43.601402, "lon": -84.787107, "terminated_loss": 308460.0, "terminated_num": 1, "terminated_loss_noself": 308460.0, "terminated_num_noself": 1}, {"org_name": "Dartmouth College", "lat": 43.711386, "lon": -72.270611, "terminated_loss": 500396.83, "terminated_num": 3, "terminated_loss_noself": 500396.83, "terminated_num_noself": 3}, {"org_name": "Jackson Laboratory", "lat": 44.365361, "lon": -68.196303, "terminated_loss": 330268.22, "terminated_num": 1, "terminated_loss_noself": 330268.22, "terminated_num_noself": 1}, {"org_name": "Clarkson University", "lat": 44.65482, "lon": -74.95554, "terminated_loss": 40987.56, "terminated_num": 1, "terminated_loss_noself": 40987.56, "terminated_num_noself": 1}, {"org_name": "Allen Institute", "lat": 47.650084, "lon": -122.351604, "terminated_loss": 61010.3884788868, "terminated_num": 3, "terminated_loss_noself": 61010.3884788868, "terminated_num_noself": 3}, {"org_name": "University of North Dakota", "lat": 47.919868, "lon": -97.072819, "terminated_loss": 171420.25, "terminated_num": 2, "terminated_loss_noself": 171420.25, "terminated_num_noself": 2}, {"org_name": "University of Alaska Fairbanks", "lat": 64.857437, "lon": -147.800301, "terminated_loss": 296755.61, "terminated_num": 1, "terminated_loss_noself": 296755.61, "terminated_num_noself": 1}, {"org_name": "University of Colorado - Colorado Springs", "lat": 38.891282, "lon": -104.800059, "terminated_loss": 2508643.39, "terminated_num": 5, "terminated_loss_noself": 2508643.39, "terminated_num_noself": 4}, {"org_name": "University of Kansas Medical Center", "lat": 39.026584, "lon": -94.636347, "terminated_loss": 374022.0, "terminated_num": 1, "terminated_loss_noself": 374022.0, "terminated_num_noself": 1}, {"org_name": "Moffitt Cancer Center", "lat": 28.062583, "lon": -82.419596, "terminated_loss": 17292.73, "terminated_num": 1, "terminated_loss_noself": 17292.73, "terminated_num_noself": 1}, {"org_name": "Rice University", "lat": 29.717236, "lon": -95.402761, "terminated_loss": 254645.24, "terminated_num": 2, "terminated_loss_noself": 254645.24, "terminated_num_noself": 1}, {"org_name": "Xavier University of Louisiana", "lat": 29.964291, "lon": -90.107468, "terminated_loss": 420461.63, "terminated_num": 1, "terminated_loss_noself": 420461.63, "terminated_num_noself": 1}, {"org_name": "LSU Pennington Biomedical Research Center", "lat": 30.403353, "lon": -91.122687, "terminated_loss": 58260.42, "terminated_num": 1, "terminated_loss_noself": 58260.42, "terminated_num_noself": 1}, {"org_name": "Texas Tech University Health Sciences Center El Paso", "lat": 31.769999, "lon": -106.431625, "terminated_loss": 347963.12, "terminated_num": 1, "terminated_loss_noself": 347963.12, "terminated_num_noself": 1}, {"org_name": "Alabama State University", "lat": 32.365014, "lon": -86.295702, "terminated_loss": 317830.99, "terminated_num": 1, "terminated_loss_noself": 317830.99, "terminated_num_noself": 1}, {"org_name": "University of North Texas", "lat": 33.21077, "lon": -97.147769, "terminated_loss": 270342.65, "terminated_num": 1, "terminated_loss_noself": 270342.65, "terminated_num_noself": 1}, {"org_name": "Augusta University", "lat": 33.470962, "lon": -81.991405, "terminated_loss": 3653277.19, "terminated_num": 3, "terminated_loss_noself": 3653277.19, "terminated_num_noself": 3}, {"org_name": "North Carolina State University Raleigh", "lat": 35.784675, "lon": -78.677233, "terminated_loss": 484783.0, "terminated_num": 1, "terminated_loss_noself": 484783.0, "terminated_num_noself": 1}, {"org_name": "University of Arkansas at Fayetteville", "lat": 36.069922, "lon": -94.176965, "terminated_loss": 285808.13, "terminated_num": 1, "terminated_loss_noself": 285808.13, "terminated_num_noself": 1}, {"org_name": "East Tennessee State University", "lat": 36.330892, "lon": -82.365584, "terminated_loss": 547950.93, "terminated_num": 1, "terminated_loss_noself": 547950.93, "terminated_num_noself": 1}, {"org_name": "Gladstone Institutes", "lat": 37.767618, "lon": -122.394315, "terminated_loss": 42175.2, "terminated_num": 1, "terminated_loss_noself": 42175.2, "terminated_num_noself": 1}, {"org_name": "Smith-Kettlewell Eye Research Institute", "lat": 37.791185, "lon": -122.43391, "terminated_loss": 38692.0, "terminated_num": 1, "terminated_loss_noself": 38692.0, "terminated_num_noself": 1}, {"org_name": "University of the District of Columbia", "lat": 38.944441, "lon": -77.064327, "terminated_loss": 465475.98, "terminated_num": 1, "terminated_loss_noself": 465475.98, "terminated_num_noself": 1}, {"org_name": "Monell Chemical Senses Center", "lat": 39.955743, "lon": -75.193059, "terminated_loss": 262604.0, "terminated_num": 2, "terminated_loss_noself": 262604.0, "terminated_num_noself": 1}, {"org_name": "Carnegie-Mellon University", "lat": 40.442959, "lon": -79.941084, "terminated_loss": 291119.0, "terminated_num": 1, "terminated_loss_noself": 291119.0, "terminated_num_noself": 1}, {"org_name": "Father Flanagan's Boys' Home", "lat": 41.253446, "lon": -96.133857, "terminated_loss": 180630.02, "terminated_num": 2, "terminated_loss_noself": 180630.02, "terminated_num_noself": 2}, {"org_name": "Creighton University", "lat": 41.264296, "lon": -95.948089, "terminated_loss": 130366.31, "terminated_num": 2, "terminated_loss_noself": 130366.31, "terminated_num_noself": 2}, {"org_name": "University of Toledo Health Science Campus", "lat": 41.619554, "lon": -83.620727, "terminated_loss": 359617.49, "terminated_num": 1, "terminated_loss_noself": 359617.49, "terminated_num_noself": 1}, {"org_name": "Hebrew Rehabilitation Center for Aged", "lat": 42.296681, "lon": -71.130734, "terminated_loss": 4886952.92, "terminated_num": 1, "terminated_loss_noself": 4886952.92, "terminated_num_noself": 1}, {"org_name": "Tufts University Medford", "lat": 42.40117, "lon": -71.125362, "terminated_loss": 14055.94, "terminated_num": 3, "terminated_loss_noself": 14055.94, "terminated_num_noself": 1}, {"org_name": "University of South Dakota", "lat": 42.78263, "lon": -96.925433, "terminated_loss": 59396.3199999999, "terminated_num": 1, "terminated_loss_noself": 59396.3199999999, "terminated_num_noself": 1}, {"org_name": "SUNY Upstate Medical University", "lat": 43.042595, "lon": -76.14055, "terminated_loss": 6207.15, "terminated_num": 1, "terminated_loss_noself": 6207.15, "terminated_num_noself": 1}, {"org_name": "St. Catherine University", "lat": 44.924882, "lon": -93.183134, "terminated_loss": 593696.12, "terminated_num": 1, "terminated_loss_noself": 593696.12, "terminated_num_noself": 1}, {"org_name": "Hennepin Healthcare Research Institute", "lat": 44.972097, "lon": -93.262404, "terminated_loss": 259243.69, "terminated_num": 1, "terminated_loss_noself": 259243.69, "terminated_num_noself": 1}, {"org_name": "Health Choice Network, Inc.", "lat": 25.784838, "lon": -80.341865, "terminated_loss": 8746.1399999999, "terminated_num": 1, "terminated_loss_noself": 8746.1399999999, "terminated_num_noself": 1}, {"org_name": "Asian American Health Coalition", "lat": 29.715091, "lon": -95.553787, "terminated_loss": 980142.35, "terminated_num": 1, "terminated_loss_noself": 980142.35, "terminated_num_noself": 1}, {"org_name": "University of Alabama", "lat": 33.215665, "lon": -87.53919, "terminated_loss": 224691.14, "terminated_num": 1, "terminated_loss_noself": 224691.14, "terminated_num_noself": 1}, {"org_name": "Delta Health Alliance, Inc.", "lat": 33.40757, "lon": -90.911217, "terminated_loss": 104662.42, "terminated_num": 1, "terminated_loss_noself": 104662.42, "terminated_num_noself": 1}, {"org_name": "Loma Linda University", "lat": 34.051744, "lon": -117.261784, "terminated_loss": 228432.12, "terminated_num": 1, "terminated_loss_noself": 228432.12, "terminated_num_noself": 1}, {"org_name": "Arkansas Cancer Coalition", "lat": 34.759836, "lon": -92.340415, "terminated_loss": 551280.17, "terminated_num": 1, "terminated_loss_noself": 551280.17, "terminated_num_noself": 1}, {"org_name": "North Carolina Department of\u00a0Health and\u00a0Human Services", "lat": 35.670641, "lon": -78.663729, "terminated_loss": 497053.92, "terminated_num": 1, "terminated_loss_noself": 497053.92, "terminated_num_noself": 1}, {"org_name": "Tech Museum of Innovation", "lat": 37.331476, "lon": -121.890183, "terminated_loss": 56689.18, "terminated_num": 1, "terminated_loss_noself": 56689.18, "terminated_num_noself": 1}, {"org_name": "Southern Illinois University at Edwardsville", "lat": 38.811295, "lon": -89.956641, "terminated_loss": 160812.29, "terminated_num": 1, "terminated_loss_noself": 160812.29, "terminated_num_noself": 1}, {"org_name": "The Academy of Natural Sciences of Drexel University", "lat": 39.957946, "lon": -75.171447, "terminated_loss": 107558.72, "terminated_num": 1, "terminated_loss_noself": 107558.72, "terminated_num_noself": 1}, {"org_name": "New York Hall of Science", "lat": 40.752572, "lon": -73.854759, "terminated_loss": 198395.93, "terminated_num": 1, "terminated_loss_noself": 198395.93, "terminated_num_noself": 1}, {"org_name": "Bronxworks, Inc.", "lat": 40.851, "lon": -73.9081, "terminated_loss": 270687.06, "terminated_num": 1, "terminated_loss_noself": 270687.06, "terminated_num_noself": 1}, {"org_name": "Feonix - Mobility Rising", "lat": 40.859135, "lon": -96.725607, "terminated_loss": 156758.4, "terminated_num": 1, "terminated_loss_noself": 156758.4, "terminated_num_noself": 1}, {"org_name": "Gordon Research Conferences", "lat": 41.480003, "lon": -71.569648, "terminated_loss": 3100.0, "terminated_num": 2, "terminated_loss_noself": 3100.0, "terminated_num_noself": 1}, {"org_name": "Face Addiction Now", "lat": 42.553717, "lon": -82.928158, "terminated_loss": 24143.5, "terminated_num": 1, "terminated_loss_noself": 24143.5, "terminated_num_noself": 1}, {"org_name": "Access Health Inc.", "lat": 43.230962, "lon": -86.243109, "terminated_loss": 81701.71, "terminated_num": 1, "terminated_loss_noself": 81701.71, "terminated_num_noself": 1}, {"org_name": "University of Texas Dallas", "lat": 32.991725, "lon": -96.743697, "terminated_loss": 62010.03, "terminated_num": 1, "terminated_loss_noself": 62010.03, "terminated_num_noself": 1}, {"org_name": "East Carolina University", "lat": 35.608358, "lon": -77.364797, "terminated_loss": 79196.76, "terminated_num": 1, "terminated_loss_noself": 79196.76, "terminated_num_noself": 1}, {"org_name": "American University", "lat": 38.936949, "lon": -77.089471, "terminated_loss": 574571.5, "terminated_num": 1, "terminated_loss_noself": 574571.5, "terminated_num_noself": 1}, {"org_name": "Claremont Graduate University", "lat": 34.103277, "lon": -117.714467, "terminated_loss": 155927.13, "terminated_num": 1, "terminated_loss_noself": 155927.13, "terminated_num_noself": 1}, {"org_name": "Beckman Research Institute", "lat": 34.127716, "lon": -117.972442, "terminated_loss": 1513.82967032967, "terminated_num": 1, "terminated_loss_noself": 1513.82967032967, "terminated_num_noself": 1}, {"org_name": "University of Kansas Lawrence", "lat": 38.951542, "lon": -95.265562, "terminated_loss": 312225.69, "terminated_num": 1, "terminated_loss_noself": 312225.69, "terminated_num_noself": 1}, {"org_name": "Cincinnati Children's Hospital Medical Center", "lat": 39.140663, "lon": -84.501007, "terminated_loss": 550097.0, "terminated_num": 1, "terminated_loss_noself": 550097.0, "terminated_num_noself": 1}, {"org_name": "Colorado School of Mines", "lat": 39.75113, "lon": -105.222306, "terminated_loss": 30551.37, "terminated_num": 1, "terminated_loss_noself": 30551.37, "terminated_num_noself": 1}, {"org_name": "Rockefeller University", "lat": 40.763746, "lon": -73.955386, "terminated_loss": 36228.92, "terminated_num": 1, "terminated_loss_noself": 36228.92, "terminated_num_noself": 1}, {"org_name": "New York Medical College", "lat": 41.085531, "lon": -73.810253, "terminated_loss": 63574.91, "terminated_num": 1, "terminated_loss_noself": 63574.91, "terminated_num_noself": 1}, {"org_name": "Winifred Masterson Burke Medical Research Institute", "lat": 41.016579, "lon": -73.752206, "terminated_loss": 880091.79, "terminated_num": 1, "terminated_loss_noself": 880091.79, "terminated_num_noself": 1}, {"org_name": "Loyola University Chicago", "lat": 41.865155, "lon": -87.833381, "terminated_loss": 53486.1538461538, "terminated_num": 1, "terminated_loss_noself": 0.0, "terminated_num_noself": 0}, {"org_name": "Ochin, Inc.", "lat": 45.509263, "lon": -122.677657, "terminated_loss": 524859.14, "terminated_num": 1, "terminated_loss_noself": 0.0, "terminated_num_noself": 0}]}