{"GRANT_LOSSES": [{"org_name": "University of Texas Medical Branch Galveston", "lat": 29.311028, "lon": -94.778007, "terminated_loss": 45254105.46, "terminated_num": 6, "terminated_loss_noself": 45254105.46, "terminated_num_noself": 6}, {"org_name": "University of Texas MD Anderson Cancer Center", "lat": 29.706319, "lon": -95.397195, "terminated_loss": 903296.0, "terminated_num": 2, "terminated_loss_noself": 903296.0, "terminated_num_noself": 2}, {"org_name": "Florida A&M University", "lat": 30.428914, "lon": -84.289766, "terminated_loss": 7522924.78, "terminated_num": 1, "terminated_loss_noself": 7522924.78, "terminated_num_noself": 1}, {"org_name": "University of Texas Southwestern Medical Center", "lat": 32.811963, "lon": -96.837534, "terminated_loss": 7516428.05372057, "terminated_num": 11, "terminated_loss_noself": 7516428.05372057, "terminated_num_noself": 10}, {"org_name": "Clark Atlanta University", "lat": 33.747725, "lon": -84.41301, "terminated_loss": 692149.99, "terminated_num": 2, "terminated_loss_noself": 692149.99, "terminated_num_noself": 2}, {"org_name": "Charles R. Drew University of Medicine & Science", "lat": 33.923952, "lon": -118.245687, "terminated_loss": 36645147.03, "terminated_num": 3, "terminated_loss_noself": 36645147.03, "terminated_num_noself": 2}, {"org_name": "California Polytechnic State University, San Luis Obispo", "lat": 35.299317, "lon": -120.656618, "terminated_loss": 141318.58, "terminated_num": 1, "terminated_loss_noself": 141318.58, "terminated_num_noself": 1}, {"org_name": "Wake Forest University Health Sciences", "lat": 36.059402, "lon": -80.321981, "terminated_loss": 5212863.26, "terminated_num": 8, "terminated_loss_noself": 5212863.26, "terminated_num_noself": 8}, {"org_name": "Virginia Polytechnic Institute and State University", "lat": 37.233061, "lon": -80.421005, "terminated_loss": 7894601.07136986, "terminated_num": 10, "terminated_loss_noself": 7894601.07136986, "terminated_num_noself": 10}, {"org_name": "WETA TV 26", "lat": 38.84087, "lon": -77.086486, "terminated_loss": 65168.7, "terminated_num": 1, "terminated_loss_noself": 65168.7, "terminated_num_noself": 1}, {"org_name": "Indiana University", "lat": 39.172055, "lon": -86.523157, "terminated_loss": 46838.33, "terminated_num": 1, "terminated_loss_noself": 46838.33, "terminated_num_noself": 1}, {"org_name": "Rutgers, Camden", "lat": 39.947479, "lon": -75.123053, "terminated_loss": 175866.65, "terminated_num": 1, "terminated_loss_noself": 175866.65, "terminated_num_noself": 1}, {"org_name": "The Research Institute at Nationwide Children's Hospital", "lat": 39.95251, "lon": -82.979302, "terminated_loss": 1007060.08, "terminated_num": 1, "terminated_loss_noself": 1007060.08, "terminated_num_noself": 1}, {"org_name": "Rutgers, Newark", "lat": 40.740542, "lon": -74.172677, "terminated_loss": 149742.31, "terminated_num": 1, "terminated_loss_noself": 149742.31, "terminated_num_noself": 1}, {"org_name": "NDRI-USA, Inc.", "lat": 40.74287, "lon": -73.992333, "terminated_loss": 307958.83, "terminated_num": 1, "terminated_loss_noself": 307958.83, "terminated_num_noself": 1}, {"org_name": "Weill Medical College of Cornell University", "lat": 40.7607, "lon": -73.9603, "terminated_loss": 20369492.5379121, "terminated_num": 8, "terminated_loss_noself": 20369492.5379121, "terminated_num_noself": 7}, {"org_name": "The Research Foundation for Mental Hygiene, Inc.", "lat": 40.843076, "lon": -73.944206, "terminated_loss": 3459014.48345679, "terminated_num": 7, "terminated_loss_noself": 3459014.48345679, "terminated_num_noself": 7}, {"org_name": "Fordham University", "lat": 40.86209, "lon": -73.88639, "terminated_loss": 1505896.78427788, "terminated_num": 2, "terminated_loss_noself": 1505896.78427788, "terminated_num_noself": 2}, {"org_name": "Pennsylvania State University", "lat": 40.870717, "lon": -77.83415, "terminated_loss": 1647582.03, "terminated_num": 6, "terminated_loss_noself": 1647582.03, "terminated_num_noself": 4}, {"org_name": "Butler Hospital", "lat": 41.843586, "lon": -71.379656, "terminated_loss": 103572.21, "terminated_num": 1, "terminated_loss_noself": 103572.21, "terminated_num_noself": 1}, {"org_name": "University of Massachusetts Medical School Worcester", "lat": 42.2802, "lon": -71.758245, "terminated_loss": 4079223.81, "terminated_num": 9, "terminated_loss_noself": 3073754.82, "terminated_num_noself": 7}, {"org_name": "Rosalind Franklin University of Medicine & Science", "lat": 42.302294, "lon": -87.861378, "terminated_loss": 476022.61, "terminated_num": 1, "terminated_loss_noself": 476022.61, "terminated_num_noself": 1}, {"org_name": "Function Promoting Therapies, LLC", "lat": 42.33724, "lon": -71.10217, "terminated_loss": 2320466.91, "terminated_num": 1, "terminated_loss_noself": 2320466.91, "terminated_num_noself": 1}, {"org_name": "Henry Ford Health and Michigan State University Health Sciences", "lat": 42.653979, "lon": -84.492032, "terminated_loss": 1607191.09, "terminated_num": 4, "terminated_loss_noself": 1607191.09, "terminated_num_noself": 4}, {"org_name": "Van Andel Research Institute", "lat": 42.969389, "lon": -85.666402, "terminated_loss": 105648.66, "terminated_num": 1, "terminated_loss_noself": 105648.66, "terminated_num_noself": 1}, {"org_name": "University of Vermont and State Agricultural College", "lat": 44.478282, "lon": -73.201079, "terminated_loss": 185156.04, "terminated_num": 1, "terminated_loss_noself": 185156.04, "terminated_num_noself": 1}, {"org_name": "Boston University", "lat": 42.33639, "lon": -71.07097, "terminated_loss": 4502170.6, "terminated_num": 11, "terminated_loss_noself": 4502170.6, "terminated_num_noself": 10}, {"org_name": "Tufts University", "lat": 42.3498, "lon": -71.06149, "terminated_loss": 5791802.29, "terminated_num": 6, "terminated_loss_noself": 5791802.29, "terminated_num_noself": 6}, {"org_name": "Columbia University", "lat": 40.8415, "lon": -73.9414, "terminated_loss": 423438123.301651, "terminated_num": 183, "terminated_loss_noself": 396821231.321651, "terminated_num_noself": 163}, {"org_name": "University of Miami", "lat": 25.713468, "lon": -80.277246, "terminated_loss": 7166229.42, "terminated_num": 20, "terminated_loss_noself": 7166229.42, "terminated_num_noself": 20}, {"org_name": "University of Hawaii at Manoa", "lat": 21.299198, "lon": -157.820371, "terminated_loss": 10384086.6566667, "terminated_num": 8, "terminated_loss_noself": 10384086.6566667, "terminated_num_noself": 8}, {"org_name": "Florida International University", "lat": 25.761055, "lon": -80.376195, "terminated_loss": 15315473.02, "terminated_num": 5, "terminated_loss_noself": 15315473.02, "terminated_num_noself": 5}, {"org_name": "Nova Southeastern University", "lat": 26.07761, "lon": -80.242565, "terminated_loss": 58462.98, "terminated_num": 1, "terminated_loss_noself": 58462.98, "terminated_num_noself": 1}, {"org_name": "University of Central Florida", "lat": 28.601027, "lon": -81.197266, "terminated_loss": 3622154.76, "terminated_num": 5, "terminated_loss_noself": 3622154.76, "terminated_num_noself": 5}, {"org_name": "St. Mary's University", "lat": 29.451933, "lon": -98.560605, "terminated_loss": 90808.0699999999, "terminated_num": 1, "terminated_loss_noself": 90808.0699999999, "terminated_num_noself": 1}, {"org_name": "University of Texas San Antonio", "lat": 29.567119, "lon": -98.605723, "terminated_loss": 2674305.22, "terminated_num": 7, "terminated_loss_noself": 2674305.22, "terminated_num_noself": 7}, {"org_name": "University of Florida", "lat": 29.643443, "lon": -82.349637, "terminated_loss": 5069647.12, "terminated_num": 15, "terminated_loss_noself": 5069647.12, "terminated_num_noself": 13}, {"org_name": "Baylor College of Medicine", "lat": 29.70926, "lon": -95.400851, "terminated_loss": 7221960.22428571, "terminated_num": 14, "terminated_loss_noself": 7194323.31428571, "terminated_num_noself": 11}, {"org_name": "University of Houston", "lat": 29.718091, "lon": -95.336483, "terminated_loss": 599835.71, "terminated_num": 3, "terminated_loss_noself": 599835.71, "terminated_num_noself": 3}, {"org_name": "Texas State University", "lat": 29.888774, "lon": -97.937445, "terminated_loss": 729745.64, "terminated_num": 2, "terminated_loss_noself": 476085.43, "terminated_num_noself": 1}, {"org_name": "Tulane University of Louisiana", "lat": 29.935429, "lon": -90.12279, "terminated_loss": 4144650.91, "terminated_num": 4, "terminated_loss_noself": 4144650.91, "terminated_num_noself": 4}, {"org_name": "University of Texas at Austin", "lat": 30.291188, "lon": -97.737568, "terminated_loss": 3812886.92, "terminated_num": 5, "terminated_loss_noself": 3812886.92, "terminated_num_noself": 5}, {"org_name": "Louisiana State University A&M College Baton Rouge", "lat": 30.408018, "lon": -91.188669, "terminated_loss": 408108.038791209, "terminated_num": 4, "terminated_loss_noself": 408108.038791209, "terminated_num_noself": 4}, {"org_name": "Florida State University", "lat": 30.441455, "lon": -84.297889, "terminated_loss": 10388090.89, "terminated_num": 7, "terminated_loss_noself": 10388090.89, "terminated_num_noself": 7}, {"org_name": "University of Texas El Paso", "lat": 31.770518, "lon": -106.504149, "terminated_loss": 4550390.16, "terminated_num": 4, "terminated_loss_noself": 4550390.16, "terminated_num_noself": 4}, {"org_name": "University of Arizona", "lat": 32.232844, "lon": -110.959467, "terminated_loss": 4903089.15950495, "terminated_num": 15, "terminated_loss_noself": 4138608.25950495, "terminated_num_noself": 13}, {"org_name": "University of Mississippi Medical Center", "lat": 32.328724, "lon": -90.175537, "terminated_loss": 1147035.39, "terminated_num": 3, "terminated_loss_noself": 1147035.39, "terminated_num_noself": 3}, {"org_name": "Auburn University at Auburn", "lat": 32.602139, "lon": -85.508496, "terminated_loss": 1041283.02, "terminated_num": 2, "terminated_loss_noself": 1041283.02, "terminated_num_noself": 2}, {"org_name": "University of North Texas Health Science Center", "lat": 32.749542, "lon": -97.36903, "terminated_loss": 10167358.6196312, "terminated_num": 3, "terminated_loss_noself": 10167358.6196312, "terminated_num_noself": 3}, {"org_name": "San Diego State University", "lat": 32.762178, "lon": -117.069156, "terminated_loss": 16424574.78, "terminated_num": 13, "terminated_loss_noself": 16208703.66, "terminated_num_noself": 12}, {"org_name": "Medical University of South Carolina", "lat": 32.786754, "lon": -79.947265, "terminated_loss": 2322899.15, "terminated_num": 5, "terminated_loss_noself": 2322899.15, "terminated_num_noself": 5}, {"org_name": "University of California, San Diego", "lat": 32.876991, "lon": -117.24087, "terminated_loss": 31403488.26, "terminated_num": 22, "terminated_loss_noself": 16159082.06, "terminated_num_noself": 19}, {"org_name": "Scripps Research Institute, the", "lat": 32.903062, "lon": -117.243592, "terminated_loss": 4483069.4, "terminated_num": 1, "terminated_loss_noself": 4483069.4, "terminated_num_noself": 1}, {"org_name": "Arizona State University-Tempe Campus", "lat": 33.423954, "lon": -111.940687, "terminated_loss": 1189405.94, "terminated_num": 5, "terminated_loss_noself": 1189405.94, "terminated_num_noself": 4}, {"org_name": "Center for Innovative Public Health Research", "lat": 33.430039, "lon": -117.616549, "terminated_loss": 2610840.0, "terminated_num": 3, "terminated_loss_noself": 2610840.0, "terminated_num_noself": 3}, {"org_name": "Banner Health", "lat": 33.433422, "lon": -112.087594, "terminated_loss": 3886206.27, "terminated_num": 1, "terminated_loss_noself": 3886206.27, "terminated_num_noself": 1}, {"org_name": "University of Alabama at Birmingham", "lat": 33.50591, "lon": -86.799772, "terminated_loss": 18124577.8283582, "terminated_num": 18, "terminated_loss_noself": 18124577.8283582, "terminated_num_noself": 18}, {"org_name": "Texas Tech University", "lat": 33.584696, "lon": -101.872767, "terminated_loss": 211114.83, "terminated_num": 1, "terminated_loss_noself": 211114.83, "terminated_num_noself": 1}, {"org_name": "University of California-Irvine", "lat": 33.64852, "lon": -117.82136, "terminated_loss": 5983937.1, "terminated_num": 18, "terminated_loss_noself": 5983937.1, "terminated_num_noself": 16}, {"org_name": "Spelman College", "lat": 33.745247, "lon": -84.411462, "terminated_loss": 4854705.39, "terminated_num": 2, "terminated_loss_noself": 4854705.39, "terminated_num_noself": 1}, {"org_name": "Morehouse School of Medicine", "lat": 33.746607, "lon": -84.414781, "terminated_loss": 4465257.25, "terminated_num": 3, "terminated_loss_noself": 4465257.25, "terminated_num_noself": 3}, {"org_name": "Georgia State University", "lat": 33.753531, "lon": -84.384483, "terminated_loss": 913224.42, "terminated_num": 4, "terminated_loss_noself": 913224.42, "terminated_num_noself": 4}, {"org_name": "Emory University", "lat": 33.791247, "lon": -84.3249, "terminated_loss": 31470348.986044, "terminated_num": 28, "terminated_loss_noself": 31470348.986044, "terminated_num_noself": 26}, {"org_name": "California State University Fullerton", "lat": 33.8781, "lon": -117.884245, "terminated_loss": 871594.24, "terminated_num": 3, "terminated_loss_noself": 871594.24, "terminated_num_noself": 3}, {"org_name": "University of Georgia", "lat": 33.931173, "lon": -83.378873, "terminated_loss": 3592151.96, "terminated_num": 4, "terminated_loss_noself": 3592151.96, "terminated_num_noself": 4}, {"org_name": "Loyola Marymount University", "lat": 33.969677, "lon": -118.416139, "terminated_loss": 509238.63, "terminated_num": 1, "terminated_loss_noself": 509238.63, "terminated_num_noself": 1}, {"org_name": "University of South Carolina at Columbia", "lat": 33.999623, "lon": -81.028249, "terminated_loss": 13704313.64, "terminated_num": 10, "terminated_loss_noself": 13704313.64, "terminated_num_noself": 10}, {"org_name": "Rand Corporation", "lat": 34.009659, "lon": -118.490943, "terminated_loss": 5016546.96, "terminated_num": 4, "terminated_loss_noself": 5016546.96, "terminated_num_noself": 4}, {"org_name": "University of Southern California", "lat": 34.017282, "lon": -118.281254, "terminated_loss": 4166307.82296703, "terminated_num": 17, "terminated_loss_noself": 4166307.82296703, "terminated_num_noself": 16}, {"org_name": "Public Health Foundation Enterprises", "lat": 34.029482, "lon": -118.023269, "terminated_loss": 2201105.02, "terminated_num": 4, "terminated_loss_noself": 2201105.02, "terminated_num_noself": 4}, {"org_name": "Kennesaw State University", "lat": 34.034315, "lon": -84.574275, "terminated_loss": 696259.68, "terminated_num": 2, "terminated_loss_noself": 696259.68, "terminated_num_noself": 2}, {"org_name": "University of California Los Angeles", "lat": 34.070199, "lon": -118.45102, "terminated_loss": 13219114.1747049, "terminated_num": 20, "terminated_loss_noself": 13219114.1747049, "terminated_num_noself": 19}, {"org_name": "Children's Hospital of Los Angeles", "lat": 34.098065, "lon": -118.29069, "terminated_loss": 12656383.83, "terminated_num": 1, "terminated_loss_noself": 12656383.83, "terminated_num_noself": 1}, {"org_name": "California State University Northridge", "lat": 34.245875, "lon": -118.501885, "terminated_loss": 701152.53, "terminated_num": 1, "terminated_loss_noself": 701152.53, "terminated_num_noself": 1}, {"org_name": "University of Mississippi", "lat": 34.36739, "lon": -89.528956, "terminated_loss": 704211.43, "terminated_num": 4, "terminated_loss_noself": 704211.43, "terminated_num_noself": 4}, {"org_name": "University of California Santa Barbara", "lat": 34.431306, "lon": -119.834277, "terminated_loss": 443044.99, "terminated_num": 3, "terminated_loss_noself": 443044.99, "terminated_num_noself": 2}, {"org_name": "University of North Carolina at Pembroke", "lat": 34.694134, "lon": -79.198114, "terminated_loss": 99597.85, "terminated_num": 1, "terminated_loss_noself": 99597.85, "terminated_num_noself": 1}, {"org_name": "University of Arkansas for Medical Sciences", "lat": 34.749005, "lon": -92.320097, "terminated_loss": 1854333.42, "terminated_num": 4, "terminated_loss_noself": 1854333.42, "terminated_num_noself": 4}, {"org_name": "University of Tennessee Chattanooga", "lat": 35.045822, "lon": -85.299815, "terminated_loss": 224753.34, "terminated_num": 1, "terminated_loss_noself": 224753.34, "terminated_num_noself": 1}, {"org_name": "University of New Mexico", "lat": 35.090226, "lon": -106.625292, "terminated_loss": 12762243.5, "terminated_num": 3, "terminated_loss_noself": 12762243.5, "terminated_num_noself": 3}, {"org_name": "University of New Mexico Health Sciences Center", "lat": 35.090968, "lon": -106.617544, "terminated_loss": 11587093.19, "terminated_num": 3, "terminated_loss_noself": 535729.51, "terminated_num_noself": 2}, {"org_name": "University of Memphis", "lat": 35.120123, "lon": -89.939705, "terminated_loss": 9625.8, "terminated_num": 1, "terminated_loss_noself": 9625.8, "terminated_num_noself": 1}, {"org_name": "University of North Carolina Charlotte", "lat": 35.301652, "lon": -80.731452, "terminated_loss": 1263352.66, "terminated_num": 3, "terminated_loss_noself": 1263352.66, "terminated_num_noself": 3}, {"org_name": "University of Oklahoma Health Sciences Center", "lat": 35.47459, "lon": -97.505034, "terminated_loss": 1788106.80372093, "terminated_num": 7, "terminated_loss_noself": 1788106.80372093, "terminated_num_noself": 7}, {"org_name": "Cherokee Nation", "lat": 35.85318, "lon": -94.99067, "terminated_loss": 1192939.12, "terminated_num": 2, "terminated_loss_noself": 1192939.12, "terminated_num_noself": 2}, {"org_name": "Research Triangle Institute", "lat": 35.9138, "lon": -78.848911, "terminated_loss": 1425373.45263736, "terminated_num": 3, "terminated_loss_noself": 1425373.45263736, "terminated_num_noself": 3}, {"org_name": "University of North Carolina Chapel Hill", "lat": 35.9316, "lon": -79.057377, "terminated_loss": 23139198.11, "terminated_num": 25, "terminated_loss_noself": 18366947.13, "terminated_num_noself": 23}, {"org_name": "University of Tennessee Knoxville", "lat": 35.954943, "lon": -83.93035, "terminated_loss": 14549.29, "terminated_num": 2, "terminated_loss_noself": 14549.29, "terminated_num_noself": 1}, {"org_name": "Innovation Research and Training, Inc.", "lat": 35.964557, "lon": -78.940527, "terminated_loss": 114998.7, "terminated_num": 1, "terminated_loss_noself": 114998.7, "terminated_num_noself": 1}, {"org_name": "Family Health International", "lat": 35.992834, "lon": -78.903914, "terminated_loss": 425648342.85, "terminated_num": 1, "terminated_loss_noself": 425648342.85, "terminated_num_noself": 1}, {"org_name": "Duke University", "lat": 36.007766, "lon": -78.926475, "terminated_loss": 8213914.41, "terminated_num": 20, "terminated_loss_noself": 7868930.56, "terminated_num_noself": 15}, {"org_name": "University of Nevada Las Vegas", "lat": 36.109517, "lon": -115.141947, "terminated_loss": 5650245.9, "terminated_num": 4, "terminated_loss_noself": 5650245.9, "terminated_num_noself": 4}, {"org_name": "Oklahoma State University Stillwater", "lat": 36.115627, "lon": -97.058038, "terminated_loss": 315497.89, "terminated_num": 1, "terminated_loss_noself": 315497.89, "terminated_num_noself": 1}, {"org_name": "Vanderbilt University", "lat": 36.143381, "lon": -86.803365, "terminated_loss": 10668449.0331025, "terminated_num": 18, "terminated_loss_noself": 10668449.0331025, "terminated_num_noself": 16}, {"org_name": "Meharry Medical College", "lat": 36.166904, "lon": -86.806149, "terminated_loss": 26274165.67, "terminated_num": 4, "terminated_loss_noself": 26274165.67, "terminated_num_noself": 4}, {"org_name": "University of California Santa Cruz", "lat": 36.97756, "lon": -122.055836, "terminated_loss": 6214665.0, "terminated_num": 6, "terminated_loss_noself": 6214665.0, "terminated_num_noself": 6}, {"org_name": "San Jose State University", "lat": 37.340938, "lon": -121.889413, "terminated_loss": 96158.88, "terminated_num": 1, "terminated_loss_noself": 96158.88, "terminated_num_noself": 1}, {"org_name": "Stanford University", "lat": 37.426852, "lon": -122.17047, "terminated_loss": 7174260.7299001, "terminated_num": 15, "terminated_loss_noself": 7174260.7299001, "terminated_num_noself": 14}, {"org_name": "Virginia Commonwealth University", "lat": 37.549807, "lon": -77.452775, "terminated_loss": 6571566.7318628, "terminated_num": 9, "terminated_loss_noself": 6571566.7318628, "terminated_num_noself": 7}, {"org_name": "San Francisco State University", "lat": 37.72091, "lon": -122.476074, "terminated_loss": 1621727.4, "terminated_num": 3, "terminated_loss_noself": 1621727.4, "terminated_num_noself": 3}, {"org_name": "University of California, San Francisco", "lat": 37.767442, "lon": -122.413937, "terminated_loss": 27393899.291917, "terminated_num": 42, "terminated_loss_noself": 26457837.961917, "terminated_num_noself": 37}, {"org_name": "University of San Francisco", "lat": 37.775292, "lon": -122.451727, "terminated_loss": 555384.5, "terminated_num": 2, "terminated_loss_noself": 555384.5, "terminated_num_noself": 1}, {"org_name": "University of California Berkeley", "lat": 37.870017, "lon": -122.268624, "terminated_loss": 5077381.96, "terminated_num": 14, "terminated_loss_noself": 5077381.96, "terminated_num_noself": 14}, {"org_name": "University of the Pacific-Stockton", "lat": 37.984345, "lon": -121.309964, "terminated_loss": 429841.83, "terminated_num": 1, "terminated_loss_noself": 429841.83, "terminated_num_noself": 1}, {"org_name": "University of Kentucky", "lat": 38.040959, "lon": -84.505885, "terminated_loss": 1737852.17, "terminated_num": 6, "terminated_loss_noself": 1737852.17, "terminated_num_noself": 4}, {"org_name": "University of Virginia", "lat": 38.050527, "lon": -78.500531, "terminated_loss": 24032679.86, "terminated_num": 6, "terminated_loss_noself": 24032679.86, "terminated_num_noself": 6}, {"org_name": "University of Louisville", "lat": 38.215024, "lon": -85.760145, "terminated_loss": 2477773.98, "terminated_num": 7, "terminated_loss_noself": 2477773.98, "terminated_num_noself": 6}, {"org_name": "Neurovations", "lat": 38.325376, "lon": -122.291992, "terminated_loss": 4347499.18, "terminated_num": 1, "terminated_loss_noself": 4347499.18, "terminated_num_noself": 1}, {"org_name": "University of California at Davis", "lat": 38.543366, "lon": -121.72946, "terminated_loss": 7284594.13, "terminated_num": 21, "terminated_loss_noself": 7284594.13, "terminated_num_noself": 18}, {"org_name": "Washington University", "lat": 38.664368, "lon": -90.323797, "terminated_loss": 10832885.69, "terminated_num": 22, "terminated_loss_noself": 9746965.03, "terminated_num_noself": 20}, {"org_name": "George Washington University", "lat": 38.898075, "lon": -77.043933, "terminated_loss": 4124590.75, "terminated_num": 6, "terminated_loss_noself": 4124590.75, "terminated_num_noself": 6}, {"org_name": "Gerontological Society of America", "lat": 38.903389, "lon": -77.029146, "terminated_loss": 1043970.63, "terminated_num": 2, "terminated_loss_noself": 1043970.63, "terminated_num_noself": 1}, {"org_name": "Whitman-Walker Institute, Inc.", "lat": 38.9127, "lon": -77.031423, "terminated_loss": 1532010.33, "terminated_num": 2, "terminated_loss_noself": 1532010.33, "terminated_num_noself": 2}, {"org_name": "Children's Research Institute", "lat": 38.927274, "lon": -77.014396, "terminated_loss": 873238.37, "terminated_num": 3, "terminated_loss_noself": 873238.37, "terminated_num_noself": 2}, {"org_name": "Us Helping Us, People Into Living, Inc.", "lat": 38.935098, "lon": -77.024402, "terminated_loss": 114194.0, "terminated_num": 1, "terminated_loss_noself": 114194.0, "terminated_num_noself": 1}, {"org_name": "University of Maryland, College Park", "lat": 38.992333, "lon": -76.952986, "terminated_loss": 3425232.52, "terminated_num": 6, "terminated_loss_noself": 3425232.52, "terminated_num_noself": 6}, {"org_name": "University of Missouri Kansas City", "lat": 39.034521, "lon": -94.575773, "terminated_loss": 815550.82, "terminated_num": 1, "terminated_loss_noself": 815550.82, "terminated_num_noself": 1}, {"org_name": "Pacific Institute for Research and Evaluation", "lat": 39.050676, "lon": -76.93727, "terminated_loss": 1298293.21, "terminated_num": 2, "terminated_loss_noself": 1298293.21, "terminated_num_noself": 2}, {"org_name": "Westat, Inc.", "lat": 39.094626, "lon": -77.181453, "terminated_loss": 10317272.5, "terminated_num": 1, "terminated_loss_noself": 10317272.5, "terminated_num_noself": 1}, {"org_name": "University of Cincinnati", "lat": 39.129719, "lon": -84.520554, "terminated_loss": 3701011.32, "terminated_num": 5, "terminated_loss_noself": 3701011.32, "terminated_num_noself": 5}, {"org_name": "University of Maryland Baltimore", "lat": 39.292248, "lon": -76.625629, "terminated_loss": 17019867.97, "terminated_num": 15, "terminated_loss_noself": 17019867.97, "terminated_num_noself": 15}, {"org_name": "Friends Research Institute, Inc.", "lat": 39.303676, "lon": -76.619888, "terminated_loss": 1419942.37, "terminated_num": 2, "terminated_loss_noself": 1419942.37, "terminated_num_noself": 2}, {"org_name": "Johns Hopkins University", "lat": 39.325256, "lon": -76.605131, "terminated_loss": 17012087.761701, "terminated_num": 28, "terminated_loss_noself": 17012087.761701, "terminated_num_noself": 28}, {"org_name": "University of Nevada Reno", "lat": 39.545077, "lon": -119.818277, "terminated_loss": 336527.38, "terminated_num": 2, "terminated_loss_noself": 229383.28, "terminated_num_noself": 1}, {"org_name": "University of Denver (Colorado Seminary)", "lat": 39.676639, "lon": -104.959481, "terminated_loss": 995920.28, "terminated_num": 1, "terminated_loss_noself": 995920.28, "terminated_num_noself": 1}, {"org_name": "Denver Health and Hospital Authority", "lat": 39.727302, "lon": -104.991569, "terminated_loss": 138989.95, "terminated_num": 1, "terminated_loss_noself": 138989.95, "terminated_num_noself": 1}, {"org_name": "University of Colorado Denver", "lat": 39.745098, "lon": -104.837605, "terminated_loss": 6740648.69, "terminated_num": 20, "terminated_loss_noself": 6740648.69, "terminated_num_noself": 19}, {"org_name": "Children's Hospital of Philadelphia", "lat": 39.946632, "lon": -75.196604, "terminated_loss": 2196513.85285714, "terminated_num": 7, "terminated_loss_noself": 2196513.85285714, "terminated_num_noself": 7}, {"org_name": "University of Pennsylvania", "lat": 39.953462, "lon": -75.193983, "terminated_loss": 14009700.3, "terminated_num": 23, "terminated_loss_noself": 14009700.3, "terminated_num_noself": 22}, {"org_name": "Drexel University", "lat": 39.954073, "lon": -75.186541, "terminated_loss": 9861739.31, "terminated_num": 7, "terminated_loss_noself": 9861739.31, "terminated_num_noself": 7}, {"org_name": "Temple University of the Commonwealth", "lat": 39.980272, "lon": -75.157051, "terminated_loss": 2072819.50934066, "terminated_num": 7, "terminated_loss_noself": 2072819.50934066, "terminated_num_noself": 7}, {"org_name": "Ohio State University", "lat": 39.999598, "lon": -83.033131, "terminated_loss": 10525066.839589, "terminated_num": 16, "terminated_loss_noself": 10525066.839589, "terminated_num_noself": 16}, {"org_name": "University of Illinois at Urbana-Champaign", "lat": 40.116857, "lon": -88.228755, "terminated_loss": 54655.6, "terminated_num": 1, "terminated_loss_noself": 54655.6, "terminated_num_noself": 1}, {"org_name": "Pennsylvania State University Hershey Medical Center", "lat": 40.264414, "lon": -76.674014, "terminated_loss": 4808576.3, "terminated_num": 3, "terminated_loss_noself": 4808576.3, "terminated_num_noself": 3}, {"org_name": "Princeton University", "lat": 40.345441, "lon": -74.655866, "terminated_loss": 191813.66, "terminated_num": 5, "terminated_loss_noself": 160543.66, "terminated_num_noself": 3}, {"org_name": "Purdue University", "lat": 40.41872, "lon": -86.910361, "terminated_loss": 269561.95, "terminated_num": 2, "terminated_loss_noself": 269561.95, "terminated_num_noself": 2}, {"org_name": "Duquesne University", "lat": 40.437818, "lon": -79.993649, "terminated_loss": 92040.95, "terminated_num": 1, "terminated_loss_noself": 92040.95, "terminated_num_noself": 1}, {"org_name": "University of Pittsburgh at Pittsburgh", "lat": 40.440909, "lon": -79.959125, "terminated_loss": 9393835.98934066, "terminated_num": 30, "terminated_loss_noself": 9206713.77934066, "terminated_num_noself": 24}, {"org_name": "Rutgers Biomedical and Health Sciences", "lat": 40.520984, "lon": -74.473247, "terminated_loss": 4292081.66, "terminated_num": 9, "terminated_loss_noself": 4292081.66, "terminated_num_noself": 9}, {"org_name": "Brooklyn College", "lat": 40.631637, "lon": -73.952868, "terminated_loss": 10922.68, "terminated_num": 1, "terminated_loss_noself": 10922.68, "terminated_num_noself": 1}, {"org_name": "New York University School of Medicine", "lat": 40.669895, "lon": -73.974354, "terminated_loss": 4336697.46, "terminated_num": 9, "terminated_loss_noself": 4336697.46, "terminated_num_noself": 8}, {"org_name": "New York University", "lat": 40.729659, "lon": -73.997018, "terminated_loss": 1988673.58, "terminated_num": 7, "terminated_loss_noself": 1988673.58, "terminated_num_noself": 6}, {"org_name": "New School University", "lat": 40.735382, "lon": -73.997241, "terminated_loss": 41180.64, "terminated_num": 1, "terminated_loss_noself": 41180.64, "terminated_num_noself": 1}, {"org_name": "Queens College", "lat": 40.735855, "lon": -73.815751, "terminated_loss": 132876.91, "terminated_num": 1, "terminated_loss_noself": 132876.91, "terminated_num_noself": 1}, {"org_name": "Ecohealth Alliance, Inc.", "lat": 40.754061, "lon": -73.998951, "terminated_loss": 5716314.4, "terminated_num": 4, "terminated_loss_noself": 0.0, "terminated_num_noself": 0}, {"org_name": "Sloan-Kettering Inst Can Research", "lat": 40.764045, "lon": -73.956024, "terminated_loss": 116261.0, "terminated_num": 1, "terminated_loss_noself": 116261.0, "terminated_num_noself": 1}, {"org_name": "University of Utah", "lat": 40.764542, "lon": -111.850317, "terminated_loss": 1947297.31, "terminated_num": 12, "terminated_loss_noself": 1947297.31, "terminated_num_noself": 11}, {"org_name": "New York Blood Center", "lat": 40.76519, "lon": -73.959922, "terminated_loss": 401517.36, "terminated_num": 2, "terminated_loss_noself": 401517.36, "terminated_num_noself": 2}, {"org_name": "Hunter College", "lat": 40.768737, "lon": -73.965182, "terminated_loss": 408672.244246575, "terminated_num": 4, "terminated_loss_noself": 408672.244246575, "terminated_num_noself": 4}, {"org_name": "Icahn School of Medicine at Mount Sinai", "lat": 40.790284, "lon": -73.946781, "terminated_loss": 17524528.0696616, "terminated_num": 16, "terminated_loss_noself": 17524528.0696616, "terminated_num_noself": 13}, {"org_name": "City College of New York", "lat": 40.819407, "lon": -73.950169, "terminated_loss": 333423.83, "terminated_num": 2, "terminated_loss_noself": 333423.83, "terminated_num_noself": 2}, {"org_name": "University of Nebraska Lincoln", "lat": 40.823017, "lon": -96.673442, "terminated_loss": 844813.77, "terminated_num": 4, "terminated_loss_noself": 844813.77, "terminated_num_noself": 4}, {"org_name": "Albert Einstein College of Medicine", "lat": 40.85103, "lon": -73.844379, "terminated_loss": 1882705.9, "terminated_num": 10, "terminated_loss_noself": 1882705.9, "terminated_num_noself": 10}, {"org_name": "Hackensack University Medical Center", "lat": 40.883415, "lon": -74.055652, "terminated_loss": 84046.33, "terminated_num": 1, "terminated_loss_noself": 84046.33, "terminated_num_noself": 1}, {"org_name": "State University New York Stony Brook", "lat": 40.914561, "lon": -73.125169, "terminated_loss": 3523971.71, "terminated_num": 5, "terminated_loss_noself": 3523971.71, "terminated_num_noself": 4}, {"org_name": "Silverbills Inc.", "lat": 40.946852, "lon": -73.772045, "terminated_loss": 114680.93, "terminated_num": 1, "terminated_loss_noself": 114680.93, "terminated_num_noself": 1}, {"org_name": "Yale University", "lat": 41.310925, "lon": -72.926428, "terminated_loss": 15664672.89, "terminated_num": 34, "terminated_loss_noself": 15623316.65, "terminated_num_noself": 31}, {"org_name": "Pro-Change Behavior Systems, Inc.", "lat": 41.451027, "lon": -71.497523, "terminated_loss": 87678.57, "terminated_num": 1, "terminated_loss_noself": 87678.57, "terminated_num_noself": 1}, {"org_name": "University of Rhode Island", "lat": 41.486042, "lon": -71.528656, "terminated_loss": 901462.27, "terminated_num": 2, "terminated_loss_noself": 901462.27, "terminated_num_noself": 2}, {"org_name": "Case Western Reserve University", "lat": 41.502739, "lon": -81.607334, "terminated_loss": 4055861.97724771, "terminated_num": 8, "terminated_loss_noself": 4055861.97724771, "terminated_num_noself": 8}, {"org_name": "University of Iowa", "lat": 41.664405, "lon": -91.542152, "terminated_loss": 486869.195315315, "terminated_num": 5, "terminated_loss_noself": 486869.195315315, "terminated_num_noself": 4}, {"org_name": "National Opinion Research Center", "lat": 41.785875, "lon": -87.597545, "terminated_loss": 289065.86, "terminated_num": 2, "terminated_loss_noself": 289065.86, "terminated_num_noself": 2}, {"org_name": "University of Chicago", "lat": 41.789554, "lon": -87.601172, "terminated_loss": 13527530.5413537, "terminated_num": 13, "terminated_loss_noself": 13527530.5413537, "terminated_num_noself": 13}, {"org_name": "Emma Pendleton Bradley Hospital", "lat": 41.792379, "lon": -71.367401, "terminated_loss": 214131.0, "terminated_num": 1, "terminated_loss_noself": 214131.0, "terminated_num_noself": 1}, {"org_name": "Resilient Games Studio, LLC", "lat": 41.798959, "lon": -87.598077, "terminated_loss": 84777.53, "terminated_num": 1, "terminated_loss_noself": 84777.53, "terminated_num_noself": 1}, {"org_name": "University of Connecticut Storrs", "lat": 41.811419, "lon": -72.247553, "terminated_loss": 1366381.01, "terminated_num": 4, "terminated_loss_noself": 1366381.01, "terminated_num_noself": 4}, {"org_name": "Rhode Island Hospital", "lat": 41.811681, "lon": -71.409371, "terminated_loss": 589725.6, "terminated_num": 4, "terminated_loss_noself": 589725.6, "terminated_num_noself": 2}, {"org_name": "Brown University", "lat": 41.826136, "lon": -71.404513, "terminated_loss": 5599185.48569273, "terminated_num": 13, "terminated_loss_noself": 5585073.48569273, "terminated_num_noself": 11}, {"org_name": "Illinois Institute of Technology", "lat": 41.831064, "lon": -87.629049, "terminated_loss": 196611.92, "terminated_num": 1, "terminated_loss_noself": 196611.92, "terminated_num_noself": 1}, {"org_name": "University of Illinois at Chicago", "lat": 41.871509, "lon": -87.667721, "terminated_loss": 3993619.14, "terminated_num": 6, "terminated_loss_noself": 3993619.14, "terminated_num_noself": 6}, {"org_name": "Rush University Medical Center", "lat": 41.87506, "lon": -87.668327, "terminated_loss": 1934012.27, "terminated_num": 3, "terminated_loss_noself": 1934012.27, "terminated_num_noself": 3}, {"org_name": "Lurie Children's Hospital of Chicago", "lat": 41.896663, "lon": -87.622919, "terminated_loss": 179368.0, "terminated_num": 1, "terminated_loss_noself": 179368.0, "terminated_num_noself": 1}, {"org_name": "Endeavor Health Clinical Operations", "lat": 42.064695, "lon": -87.689868, "terminated_loss": 1412830.85, "terminated_num": 1, "terminated_loss_noself": 1412830.85, "terminated_num_noself": 1}, {"org_name": "Eastern Michigan University", "lat": 42.233132, "lon": -83.623767, "terminated_loss": 1039731.22, "terminated_num": 1, "terminated_loss_noself": 1039731.22, "terminated_num_noself": 1}, {"org_name": "University of Michigan at Ann Arbor", "lat": 42.275494, "lon": -83.743038, "terminated_loss": 24061904.97, "terminated_num": 31, "terminated_loss_noself": 24061904.97, "terminated_num_noself": 28}, {"org_name": "Harvard Pilgrim Health Care, Inc.", "lat": 42.316808, "lon": -71.234595, "terminated_loss": 3830024.58, "terminated_num": 5, "terminated_loss_noself": 3830024.58, "terminated_num_noself": 5}, {"org_name": "Harvard School of Public Health", "lat": 42.335306, "lon": -71.102775, "terminated_loss": 594408424.146215, "terminated_num": 157, "terminated_loss_noself": 583139155.556215, "terminated_num_noself": 151}, {"org_name": "Boston Medical Center", "lat": 42.336854, "lon": -71.070881, "terminated_loss": 202897.6, "terminated_num": 2, "terminated_loss_noself": 202897.6, "terminated_num_noself": 2}, {"org_name": "Boston College", "lat": 42.336956, "lon": -71.170504, "terminated_loss": 3870740.87771481, "terminated_num": 5, "terminated_loss_noself": 3870740.87771481, "terminated_num_noself": 5}, {"org_name": "Boston Children's Hospital", "lat": 42.337481, "lon": -71.104964, "terminated_loss": 4868547.55, "terminated_num": 7, "terminated_loss_noself": 4868547.55, "terminated_num_noself": 7}, {"org_name": "Beth Israel Deaconess Medical Center", "lat": 42.33982, "lon": -71.10568, "terminated_loss": 515401.81, "terminated_num": 3, "terminated_loss_noself": 515401.81, "terminated_num_noself": 3}, {"org_name": "Northeastern University", "lat": 42.340048, "lon": -71.088892, "terminated_loss": 1313483.55, "terminated_num": 4, "terminated_loss_noself": 1313483.55, "terminated_num_noself": 4}, {"org_name": "Fenway Community Health Center", "lat": 42.34412, "lon": -71.098412, "terminated_loss": 411683.52, "terminated_num": 1, "terminated_loss_noself": 411683.52, "terminated_num_noself": 1}, {"org_name": "Broad Institute, Inc.", "lat": 42.363082, "lon": -71.087893, "terminated_loss": 8132769.37, "terminated_num": 2, "terminated_loss_noself": 8132769.37, "terminated_num_noself": 2}, {"org_name": "Harvard University", "lat": 42.369697, "lon": -71.11193, "terminated_loss": 173468030.138242, "terminated_num": 139, "terminated_loss_noself": 172457563.458242, "terminated_num_noself": 135}, {"org_name": "Ibis Reproductive Health", "lat": 42.372813, "lon": -71.119098, "terminated_loss": 214131.0, "terminated_num": 1, "terminated_loss_noself": 214131.0, "terminated_num_noself": 1}, {"org_name": "Cambridge Health Alliance", "lat": 42.374417, "lon": -71.104436, "terminated_loss": 1712200.84, "terminated_num": 2, "terminated_loss_noself": 1712200.84, "terminated_num_noself": 2}, {"org_name": "University of Massachusetts Amherst", "lat": 42.386914, "lon": -72.521131, "terminated_loss": 1137695.81, "terminated_num": 1, "terminated_loss_noself": 1137695.81, "terminated_num_noself": 1}, {"org_name": "Bentley University", "lat": 42.388834, "lon": -71.220231, "terminated_loss": 6005.70000000001, "terminated_num": 1, "terminated_loss_noself": 6005.70000000001, "terminated_num_noself": 1}, {"org_name": "University of Detroit Mercy", "lat": 42.417084, "lon": -83.138847, "terminated_loss": 99780.84, "terminated_num": 1, "terminated_loss_noself": 99780.84, "terminated_num_noself": 1}, {"org_name": "Cornell University", "lat": 42.438, "lon": -76.4625, "terminated_loss": 10256370.4, "terminated_num": 4, "terminated_loss_noself": 10256370.4, "terminated_num_noself": 4}, {"org_name": "Michigan State University", "lat": 42.653979, "lon": -84.492032, "terminated_loss": 941012.31020202, "terminated_num": 5, "terminated_loss_noself": 941012.31020202, "terminated_num_noself": 4}, {"org_name": "Roswell Park Cancer Institute Corp", "lat": 42.873378, "lon": -78.869243, "terminated_loss": 2093741.69, "terminated_num": 1, "terminated_loss_noself": 2093741.69, "terminated_num_noself": 1}, {"org_name": "State University of New York at Buffalo", "lat": 43.003074, "lon": -78.785924, "terminated_loss": 2548462.28, "terminated_num": 8, "terminated_loss_noself": 2548462.28, "terminated_num_noself": 8}, {"org_name": "Marquette University", "lat": 43.038728, "lon": -87.923307, "terminated_loss": 153406.98, "terminated_num": 1, "terminated_loss_noself": 153406.98, "terminated_num_noself": 1}, {"org_name": "Medical College of Wisconsin", "lat": 43.04575, "lon": -88.020374, "terminated_loss": 2140113.21876712, "terminated_num": 9, "terminated_loss_noself": 2140113.21876712, "terminated_num_noself": 8}, {"org_name": "University of Wisconsin-Madison", "lat": 43.068519, "lon": -89.400858, "terminated_loss": 3344906.56, "terminated_num": 14, "terminated_loss_noself": 3313815.17, "terminated_num_noself": 9}, {"org_name": "University of Wisconsin Milwaukee", "lat": 43.075704, "lon": -87.877999, "terminated_loss": 3125950.81, "terminated_num": 5, "terminated_loss_noself": 2757403.77, "terminated_num_noself": 4}, {"org_name": "University of Rochester", "lat": 43.131774, "lon": -77.63546, "terminated_loss": 2620923.18, "terminated_num": 12, "terminated_loss_noself": 2620923.18, "terminated_num_noself": 11}, {"org_name": "Mainehealth", "lat": 43.653164, "lon": -70.275471, "terminated_loss": 5014585.42, "terminated_num": 1, "terminated_loss_noself": 5014585.42, "terminated_num_noself": 1}, {"org_name": "University of Oregon", "lat": 44.045509, "lon": -123.069741, "terminated_loss": 516023.44, "terminated_num": 6, "terminated_loss_noself": 516023.44, "terminated_num_noself": 4}, {"org_name": "Iris Media, Inc.", "lat": 44.048722, "lon": -123.088476, "terminated_loss": 133274.02, "terminated_num": 1, "terminated_loss_noself": 133274.02, "terminated_num_noself": 1}, {"org_name": "Healthpartners Institute", "lat": 44.85364, "lon": -93.225576, "terminated_loss": 1390435.76, "terminated_num": 2, "terminated_loss_noself": 1390435.76, "terminated_num_noself": 2}, {"org_name": "University of Minnesota", "lat": 44.975143, "lon": -93.227003, "terminated_loss": 14410565.11, "terminated_num": 14, "terminated_loss_noself": 10966390.88, "terminated_num_noself": 13}, {"org_name": "Oregon Health & Science University", "lat": 45.49882, "lon": -122.685647, "terminated_loss": 2351952.3432967, "terminated_num": 6, "terminated_loss_noself": 2351952.3432967, "terminated_num_noself": 6}, {"org_name": "Montana State University - Bozeman", "lat": 45.661963, "lon": -111.059937, "terminated_loss": 449240.0, "terminated_num": 2, "terminated_loss_noself": 449240.0, "terminated_num_noself": 2}, {"org_name": "Washington State University", "lat": 46.728892, "lon": -117.155742, "terminated_loss": 5501481.26, "terminated_num": 4, "terminated_loss_noself": 5501481.26, "terminated_num_noself": 4}, {"org_name": "University of Idaho", "lat": 46.730287, "lon": -116.996847, "terminated_loss": 243447.5, "terminated_num": 1, "terminated_loss_noself": 243447.5, "terminated_num_noself": 1}, {"org_name": "University of Montana", "lat": 46.860203, "lon": -113.983723, "terminated_loss": 472743.88, "terminated_num": 2, "terminated_loss_noself": 472743.88, "terminated_num_noself": 2}, {"org_name": "Institute for Systems Biology", "lat": 47.622538, "lon": -122.337533, "terminated_loss": 643150.0, "terminated_num": 2, "terminated_loss_noself": 643150.0, "terminated_num_noself": 2}, {"org_name": "Fred Hutchinson Cancer Center", "lat": 47.626482, "lon": -122.329606, "terminated_loss": 1946022.57, "terminated_num": 5, "terminated_loss_noself": 1946022.57, "terminated_num_noself": 5}, {"org_name": "University of Washington", "lat": 47.660307, "lon": -122.315168, "terminated_loss": 11648636.0638462, "terminated_num": 22, "terminated_loss_noself": 11648636.0638462, "terminated_num_noself": 20}, {"org_name": "Seattle Children's Hospital", "lat": 47.66243, "lon": -122.282291, "terminated_loss": 230438.27, "terminated_num": 4, "terminated_loss_noself": 230438.27, "terminated_num_noself": 3}, {"org_name": "Southcentral Foundation", "lat": 61.182148, "lon": -149.795959, "terminated_loss": 698945.86, "terminated_num": 1, "terminated_loss_noself": 698945.86, "terminated_num_noself": 1}, {"org_name": "University of Alaska Anchorage", "lat": 61.190646, "lon": -149.818129, "terminated_loss": 92557.24, "terminated_num": 1, "terminated_loss_noself": 92557.24, "terminated_num_noself": 1}, {"org_name": "Queen's Medical Center", "lat": 21.307803, "lon": -157.853947, "terminated_loss": 633837.19, "terminated_num": 1, "terminated_loss_noself": 633837.19, "terminated_num_noself": 1}, {"org_name": "Colliga Apps Corp.", "lat": 25.763047, "lon": -80.190448, "terminated_loss": 178325.0, "terminated_num": 1, "terminated_loss_noself": 178325.0, "terminated_num_noself": 1}, {"org_name": "University of South Florida", "lat": 28.074039, "lon": -82.395963, "terminated_loss": 186815.06, "terminated_num": 2, "terminated_loss_noself": 186815.06, "terminated_num_noself": 1}, {"org_name": "University of Texas Health Science Center", "lat": 29.513091, "lon": -98.577742, "terminated_loss": 4560013.81, "terminated_num": 7, "terminated_loss_noself": 4560013.81, "terminated_num_noself": 7}, {"org_name": "University of Texas Health Science Center Houston", "lat": 29.703025, "lon": -95.403303, "terminated_loss": 1143398.78, "terminated_num": 5, "terminated_loss_noself": 1143398.78, "terminated_num_noself": 5}, {"org_name": "LSU Health Scienes Center", "lat": 29.957378, "lon": -90.082793, "terminated_loss": 451935.95, "terminated_num": 2, "terminated_loss_noself": 451935.95, "terminated_num_noself": 2}, {"org_name": "Dillard University", "lat": 29.996211, "lon": -90.065957, "terminated_loss": 601634.75, "terminated_num": 1, "terminated_loss_noself": 601634.75, "terminated_num_noself": 1}, {"org_name": "Prairie View\u00a0A&M\u00a0University\u00a0", "lat": 30.081335, "lon": -95.992865, "terminated_loss": 29392.01, "terminated_num": 1, "terminated_loss_noself": 29392.01, "terminated_num_noself": 1}, {"org_name": "Mayo Clinic Jacksonville", "lat": 30.264703, "lon": -81.444793, "terminated_loss": 6564.86, "terminated_num": 1, "terminated_loss_noself": 6564.86, "terminated_num_noself": 1}, {"org_name": "University of North Florida", "lat": 30.270668, "lon": -81.510431, "terminated_loss": 134693.18, "terminated_num": 1, "terminated_loss_noself": 134693.18, "terminated_num_noself": 1}, {"org_name": "Texas Engineering Experiment Station", "lat": 30.561542, "lon": -96.253207, "terminated_loss": 646122.0, "terminated_num": 1, "terminated_loss_noself": 646122.0, "terminated_num_noself": 1}, {"org_name": "Texas A&M University", "lat": 30.605876, "lon": -96.368771, "terminated_loss": 597342.02, "terminated_num": 6, "terminated_loss_noself": 597342.02, "terminated_num_noself": 5}, {"org_name": "Sam Houston State University", "lat": 30.715211, "lon": -95.549345, "terminated_loss": 64015.42, "terminated_num": 1, "terminated_loss_noself": 64015.42, "terminated_num_noself": 1}, {"org_name": "Baylor University", "lat": 31.555713, "lon": -97.121401, "terminated_loss": 2180559.0, "terminated_num": 1, "terminated_loss_noself": 2180559.0, "terminated_num_noself": 1}, {"org_name": "New Mexico State University Las Cruces", "lat": 32.279041, "lon": -106.755696, "terminated_loss": 561830.27, "terminated_num": 2, "terminated_loss_noself": 561830.27, "terminated_num_noself": 2}, {"org_name": "University of Texas Arlington", "lat": 32.728201, "lon": -97.112604, "terminated_loss": 1269059.78, "terminated_num": 2, "terminated_loss_noself": 1269059.78, "terminated_num_noself": 2}, {"org_name": "Scripps Health", "lat": 32.887742, "lon": -117.223797, "terminated_loss": 202964.0, "terminated_num": 1, "terminated_loss_noself": 202964.0, "terminated_num_noself": 1}, {"org_name": "California State University San Marcos", "lat": 33.13799, "lon": -117.151093, "terminated_loss": 275064.16, "terminated_num": 2, "terminated_loss_noself": 275064.16, "terminated_num_noself": 2}, {"org_name": "Claflin University", "lat": 33.495919, "lon": -80.855463, "terminated_loss": 877815.18, "terminated_num": 1, "terminated_loss_noself": 877815.18, "terminated_num_noself": 1}, {"org_name": "Mayo Clinic Arizona", "lat": 33.589113, "lon": -111.79394, "terminated_loss": 811795.0, "terminated_num": 1, "terminated_loss_noself": 811795.0, "terminated_num_noself": 1}, {"org_name": "California State University Long Beach", "lat": 33.781104, "lon": -118.109903, "terminated_loss": 217726.13, "terminated_num": 1, "terminated_loss_noself": 217726.13, "terminated_num_noself": 1}, {"org_name": "Georgia Institute of Technology", "lat": 33.781897, "lon": -84.404009, "terminated_loss": 279234.1, "terminated_num": 2, "terminated_loss_noself": 279234.1, "terminated_num_noself": 2}, {"org_name": "California State University - Dominguez Hills", "lat": 33.867141, "lon": -118.255341, "terminated_loss": 12986.19, "terminated_num": 1, "terminated_loss_noself": 12986.19, "terminated_num_noself": 1}, {"org_name": "California State University Los Angeles", "lat": 34.062539, "lon": -118.169044, "terminated_loss": 979392.28, "terminated_num": 1, "terminated_loss_noself": 979392.28, "terminated_num_noself": 1}, {"org_name": "California Institute of Technology", "lat": 34.134332, "lon": -118.12652, "terminated_loss": 625874.0, "terminated_num": 1, "terminated_loss_noself": 625874.0, "terminated_num_noself": 1}, {"org_name": "California State University San Bernardino", "lat": 34.176782, "lon": -117.330185, "terminated_loss": 881103.1, "terminated_num": 1, "terminated_loss_noself": 881103.1, "terminated_num_noself": 1}, {"org_name": "Clemson University", "lat": 34.673146, "lon": -82.823962, "terminated_loss": 331355.77, "terminated_num": 3, "terminated_loss_noself": 331355.77, "terminated_num_noself": 2}, {"org_name": "Fayetteville State University", "lat": 35.071547, "lon": -78.894454, "terminated_loss": 94529.28, "terminated_num": 1, "terminated_loss_noself": 94529.28, "terminated_num_noself": 1}, {"org_name": "St. Jude Children's Research Hospital", "lat": 35.155607, "lon": -90.045279, "terminated_loss": 522011.0, "terminated_num": 1, "terminated_loss_noself": 522011.0, "terminated_num_noself": 1}, {"org_name": "University of Oklahoma", "lat": 35.209223, "lon": -97.443781, "terminated_loss": 1150230.0, "terminated_num": 1, "terminated_loss_noself": 1150230.0, "terminated_num_noself": 1}, {"org_name": "California State University Bakersfield", "lat": 35.354257, "lon": -119.107587, "terminated_loss": 263387.94, "terminated_num": 1, "terminated_loss_noself": 263387.94, "terminated_num_noself": 1}, {"org_name": "Oklahoma Medical Research Foundation", "lat": 35.482988, "lon": -97.49781, "terminated_loss": 546743.95, "terminated_num": 2, "terminated_loss_noself": 546743.95, "terminated_num_noself": 2}, {"org_name": "Equiti Foods, LLC", "lat": 35.901309, "lon": -79.061049, "terminated_loss": 55120.0, "terminated_num": 1, "terminated_loss_noself": 55120.0, "terminated_num_noself": 1}, {"org_name": "North Carolina Central University", "lat": 35.97467, "lon": -78.898054, "terminated_loss": 224681.54, "terminated_num": 1, "terminated_loss_noself": 224681.54, "terminated_num_noself": 1}, {"org_name": "University of North Carolina Greensboro", "lat": 36.065048, "lon": -79.808967, "terminated_loss": 123287.07, "terminated_num": 1, "terminated_loss_noself": 123287.07, "terminated_num_noself": 1}, {"org_name": "Laureate Institute for Brain Research", "lat": 36.066243, "lon": -95.919455, "terminated_loss": 1582751.44, "terminated_num": 2, "terminated_loss_noself": 1582751.44, "terminated_num_noself": 2}, {"org_name": "North Carolina A&T State University", "lat": 36.074178, "lon": -79.775965, "terminated_loss": 107518.95, "terminated_num": 2, "terminated_loss_noself": 107518.95, "terminated_num_noself": 2}, {"org_name": "Tennessee State University", "lat": 36.168333, "lon": -86.828524, "terminated_loss": 171144.06, "terminated_num": 1, "terminated_loss_noself": 171144.06, "terminated_num_noself": 1}, {"org_name": "Old Dominion University", "lat": 36.888989, "lon": -76.303478, "terminated_loss": 130042.7, "terminated_num": 2, "terminated_loss_noself": 130042.7, "terminated_num_noself": 2}, {"org_name": "Western Kentucky University", "lat": 36.986798, "lon": -86.455375, "terminated_loss": 274169.0, "terminated_num": 1, "terminated_loss_noself": 274169.0, "terminated_num_noself": 1}, {"org_name": "Hampton University", "lat": 37.025661, "lon": -76.347732, "terminated_loss": 116600.0, "terminated_num": 1, "terminated_loss_noself": 116600.0, "terminated_num_noself": 1}, {"org_name": "Fort Lewis College", "lat": 37.274983, "lon": -107.872039, "terminated_loss": 328029.42, "terminated_num": 1, "terminated_loss_noself": 328029.42, "terminated_num_noself": 1}, {"org_name": "University of California, Merced", "lat": 37.351306, "lon": -120.4324, "terminated_loss": 606916.19, "terminated_num": 2, "terminated_loss_noself": 606916.19, "terminated_num_noself": 2}, {"org_name": "San Francisco Department of Public Health", "lat": 37.778128, "lon": -122.418652, "terminated_loss": 924356.0, "terminated_num": 1, "terminated_loss_noself": 0.0, "terminated_num_noself": 0}, {"org_name": "California State University Sacramento", "lat": 38.553853, "lon": -121.421265, "terminated_loss": 104994.08, "terminated_num": 1, "terminated_loss_noself": 104994.08, "terminated_num_noself": 1}, {"org_name": "Isa Associates, Inc.", "lat": 38.805407, "lon": -77.039842, "terminated_loss": 1250418.19, "terminated_num": 1, "terminated_loss_noself": 1250418.19, "terminated_num_noself": 1}, {"org_name": "American Psychological Association", "lat": 38.89984, "lon": -77.007538, "terminated_loss": 352463.59, "terminated_num": 1, "terminated_loss_noself": 352463.59, "terminated_num_noself": 1}, {"org_name": "Endocrine Society", "lat": 38.904115, "lon": -77.046163, "terminated_loss": 1361923.0, "terminated_num": 1, "terminated_loss_noself": 1361923.0, "terminated_num_noself": 1}, {"org_name": "Georgetown University", "lat": 38.905206, "lon": -77.07547, "terminated_loss": 820436.43, "terminated_num": 2, "terminated_loss_noself": 820436.43, "terminated_num_noself": 2}, {"org_name": "Howard University", "lat": 38.923138, "lon": -77.021576, "terminated_loss": 102660.23, "terminated_num": 1, "terminated_loss_noself": 102660.23, "terminated_num_noself": 1}, {"org_name": "Academic Pediatric Association", "lat": 38.937467, "lon": -77.176943, "terminated_loss": 859004.59, "terminated_num": 1, "terminated_loss_noself": 859004.59, "terminated_num_noself": 1}, {"org_name": "University of Missouri-Columbia", "lat": 38.948231, "lon": -92.327335, "terminated_loss": 5114133.60857143, "terminated_num": 6, "terminated_loss_noself": 5114133.60857143, "terminated_num_noself": 6}, {"org_name": "American Gastroenterological Association Institute", "lat": 38.989333, "lon": -77.099203, "terminated_loss": 810801.0, "terminated_num": 1, "terminated_loss_noself": 810801.0, "terminated_num_noself": 1}, {"org_name": "Delaware State University", "lat": 39.189379, "lon": -75.541169, "terminated_loss": 1215899.57153846, "terminated_num": 3, "terminated_loss_noself": 1215899.57153846, "terminated_num_noself": 3}, {"org_name": "University of Maryland Baltimore County", "lat": 39.252457, "lon": -76.71121, "terminated_loss": 1865769.08, "terminated_num": 4, "terminated_loss_noself": 1865769.08, "terminated_num_noself": 4}, {"org_name": "Rowan University", "lat": 39.707715, "lon": -75.116897, "terminated_loss": 357462.3, "terminated_num": 1, "terminated_loss_noself": 357462.3, "terminated_num_noself": 1}, {"org_name": "University of Delaware", "lat": 39.714507, "lon": -75.738715, "terminated_loss": 249954.48, "terminated_num": 2, "terminated_loss_noself": 249954.48, "terminated_num_noself": 1}, {"org_name": "Indiana University Indianapolis", "lat": 39.779213, "lon": -86.175288, "terminated_loss": 3711795.31648649, "terminated_num": 6, "terminated_loss_noself": 3711795.31648649, "terminated_num_noself": 6}, {"org_name": "Thomas Jefferson University", "lat": 39.948207, "lon": -75.157825, "terminated_loss": 856620.23, "terminated_num": 2, "terminated_loss_noself": 856620.23, "terminated_num_noself": 2}, {"org_name": "Rutgers University", "lat": 40.481906, "lon": -74.457066, "terminated_loss": 444621.0, "terminated_num": 2, "terminated_loss_noself": 444621.0, "terminated_num_noself": 2}, {"org_name": "Colorado State University", "lat": 40.57951, "lon": -105.081267, "terminated_loss": 390567.28, "terminated_num": 3, "terminated_loss_noself": 390567.28, "terminated_num_noself": 2}, {"org_name": "Medgar Evers College", "lat": 40.667136, "lon": -73.951831, "terminated_loss": 65977.64, "terminated_num": 1, "terminated_loss_noself": 65977.64, "terminated_num_noself": 1}, {"org_name": "New Jersey Institute of Technology", "lat": 40.742916, "lon": -74.176244, "terminated_loss": 855259.38, "terminated_num": 2, "terminated_loss_noself": 855259.38, "terminated_num_noself": 2}, {"org_name": "Bellage, Inc.", "lat": 40.74767, "lon": -73.918101, "terminated_loss": 76716.85, "terminated_num": 1, "terminated_loss_noself": 76716.85, "terminated_num_noself": 1}, {"org_name": "Hospital for Special Surgery", "lat": 40.765324, "lon": -73.953947, "terminated_loss": 676204.0, "terminated_num": 1, "terminated_loss_noself": 676204.0, "terminated_num_noself": 1}, {"org_name": "Cold Spring Harbor Laboratory", "lat": 40.86755, "lon": -73.473456, "terminated_loss": 287242.57, "terminated_num": 1, "terminated_loss_noself": 287242.57, "terminated_num_noself": 1}, {"org_name": "Herbert H. Lehman College", "lat": 40.870857, "lon": -73.8866, "terminated_loss": 189545.1, "terminated_num": 2, "terminated_loss_noself": 189545.1, "terminated_num_noself": 2}, {"org_name": "Kent State University", "lat": 41.152425, "lon": -81.337881, "terminated_loss": 419715.0, "terminated_num": 1, "terminated_loss_noself": 419715.0, "terminated_num_noself": 1}, {"org_name": "University of Nebraska Medical Center", "lat": 41.265996, "lon": -96.010026, "terminated_loss": 1173808.01, "terminated_num": 3, "terminated_loss_noself": 1173808.01, "terminated_num_noself": 3}, {"org_name": "University of Notre Dame", "lat": 41.693901, "lon": -86.239284, "terminated_loss": 762155.18, "terminated_num": 3, "terminated_loss_noself": 762155.18, "terminated_num_noself": 3}, {"org_name": "University of Connecticut School of Medicine", "lat": 41.734182, "lon": -72.793791, "terminated_loss": 199834.0, "terminated_num": 1, "terminated_loss_noself": 199834.0, "terminated_num_noself": 1}, {"org_name": "University of Hartford", "lat": 41.79337, "lon": -72.716263, "terminated_loss": 8125.07000000001, "terminated_num": 1, "terminated_loss_noself": 8125.07000000001, "terminated_num_noself": 1}, {"org_name": "Northwestern University", "lat": 42.050479, "lon": -87.680046, "terminated_loss": 39497909.0, "terminated_num": 24, "terminated_loss_noself": 39369611.02, "terminated_num_noself": 23}, {"org_name": "University of Massachusetts Boston", "lat": 42.313703, "lon": -71.062976, "terminated_loss": 1480287.0, "terminated_num": 1, "terminated_loss_noself": 1480287.0, "terminated_num_noself": 1}, {"org_name": "Harvard Medical School", "lat": 42.335672, "lon": -71.104237, "terminated_loss": 447910553.867611, "terminated_num": 339, "terminated_loss_noself": 447898793.867611, "terminated_num_noself": 331}, {"org_name": "Wayne State University", "lat": 42.357466, "lon": -83.065294, "terminated_loss": 645930.45, "terminated_num": 4, "terminated_loss_noself": 645930.45, "terminated_num_noself": 3}, {"org_name": "McLean Hospital", "lat": 42.393619, "lon": -71.191142, "terminated_loss": 1846163.0, "terminated_num": 3, "terminated_loss_noself": 1846163.0, "terminated_num_noself": 3}, {"org_name": "Rensselaer Polytechnic Institute", "lat": 42.732865, "lon": -73.683493, "terminated_loss": 993814.0, "terminated_num": 1, "terminated_loss_noself": 993814.0, "terminated_num_noself": 1}, {"org_name": "Syracuse University", "lat": 43.041575, "lon": -76.133784, "terminated_loss": 82266.61, "terminated_num": 1, "terminated_loss_noself": 82266.61, "terminated_num_noself": 1}, {"org_name": "Rochester Institute of Technology", "lat": 43.092171, "lon": -77.674767, "terminated_loss": 76536.09, "terminated_num": 1, "terminated_loss_noself": 76536.09, "terminated_num_noself": 1}, {"org_name": "Central Michigan University", "lat": 43.601402, "lon": -84.787107, "terminated_loss": 308460.0, "terminated_num": 1, "terminated_loss_noself": 308460.0, "terminated_num_noself": 1}, {"org_name": "Dartmouth College", "lat": 43.711386, "lon": -72.270611, "terminated_loss": 521638.92, "terminated_num": 3, "terminated_loss_noself": 521638.92, "terminated_num_noself": 3}, {"org_name": "Jackson Laboratory", "lat": 44.365361, "lon": -68.196303, "terminated_loss": 914182.81, "terminated_num": 3, "terminated_loss_noself": 914182.81, "terminated_num_noself": 3}, {"org_name": "Clarkson University", "lat": 44.65482, "lon": -74.95554, "terminated_loss": 84132.11, "terminated_num": 1, "terminated_loss_noself": 84132.11, "terminated_num_noself": 1}, {"org_name": "Missouri Breaks Research, Inc.", "lat": 45.4277, "lon": -101.074481, "terminated_loss": 1019047.0, "terminated_num": 1, "terminated_loss_noself": 1019047.0, "terminated_num_noself": 1}, {"org_name": "Portland State University", "lat": 45.51201, "lon": -122.679476, "terminated_loss": 519656.78, "terminated_num": 1, "terminated_loss_noself": 519656.78, "terminated_num_noself": 1}, {"org_name": "Allen Institute", "lat": 47.650084, "lon": -122.351604, "terminated_loss": 61010.3884788868, "terminated_num": 3, "terminated_loss_noself": 61010.3884788868, "terminated_num_noself": 3}, {"org_name": "University of North Dakota", "lat": 47.919868, "lon": -97.072819, "terminated_loss": 195698.72, "terminated_num": 2, "terminated_loss_noself": 195698.72, "terminated_num_noself": 2}, {"org_name": "University of Alaska Fairbanks", "lat": 64.857437, "lon": -147.800301, "terminated_loss": 340280.87, "terminated_num": 1, "terminated_loss_noself": 340280.87, "terminated_num_noself": 1}, {"org_name": "University of Colorado - Colorado Springs", "lat": 38.891282, "lon": -104.800059, "terminated_loss": 2593911.08, "terminated_num": 6, "terminated_loss_noself": 2593911.08, "terminated_num_noself": 5}, {"org_name": "University of Kansas Medical Center", "lat": 39.026584, "lon": -94.636347, "terminated_loss": 374022.0, "terminated_num": 1, "terminated_loss_noself": 374022.0, "terminated_num_noself": 1}, {"org_name": "Moffitt Cancer Center", "lat": 28.062583, "lon": -82.419596, "terminated_loss": 29434.22, "terminated_num": 1, "terminated_loss_noself": 29434.22, "terminated_num_noself": 1}, {"org_name": "Rice University", "lat": 29.717236, "lon": -95.402761, "terminated_loss": 255772.95, "terminated_num": 1, "terminated_loss_noself": 255772.95, "terminated_num_noself": 1}, {"org_name": "Xavier University of Louisiana", "lat": 29.964291, "lon": -90.107468, "terminated_loss": 420461.63, "terminated_num": 1, "terminated_loss_noself": 420461.63, "terminated_num_noself": 1}, {"org_name": "LSU Pennington Biomedical Research Center", "lat": 30.403353, "lon": -91.122687, "terminated_loss": 25543.97, "terminated_num": 1, "terminated_loss_noself": 25543.97, "terminated_num_noself": 1}, {"org_name": "Texas Tech University Health Sciences Center El Paso", "lat": 31.769999, "lon": -106.431625, "terminated_loss": 382069.11, "terminated_num": 1, "terminated_loss_noself": 382069.11, "terminated_num_noself": 1}, {"org_name": "Alabama State University", "lat": 32.365014, "lon": -86.295702, "terminated_loss": 337440.87, "terminated_num": 1, "terminated_loss_noself": 337440.87, "terminated_num_noself": 1}, {"org_name": "University of North Texas", "lat": 33.21077, "lon": -97.147769, "terminated_loss": 302172.03, "terminated_num": 1, "terminated_loss_noself": 302172.03, "terminated_num_noself": 1}, {"org_name": "Augusta University", "lat": 33.470962, "lon": -81.991405, "terminated_loss": 27914.33, "terminated_num": 1, "terminated_loss_noself": 27914.33, "terminated_num_noself": 1}, {"org_name": "University of California Riverside", "lat": 33.972585, "lon": -117.350361, "terminated_loss": 122.903846153844, "terminated_num": 1, "terminated_loss_noself": 122.903846153844, "terminated_num_noself": 1}, {"org_name": "University of Arkansas at Fayetteville", "lat": 36.069922, "lon": -94.176965, "terminated_loss": 299575.86, "terminated_num": 1, "terminated_loss_noself": 299575.86, "terminated_num_noself": 1}, {"org_name": "East Tennessee State University", "lat": 36.330892, "lon": -82.365584, "terminated_loss": 568254.09, "terminated_num": 1, "terminated_loss_noself": 568254.09, "terminated_num_noself": 1}, {"org_name": "Gladstone Institutes", "lat": 37.767618, "lon": -122.394315, "terminated_loss": 49189.08, "terminated_num": 1, "terminated_loss_noself": 49189.08, "terminated_num_noself": 1}, {"org_name": "Smith-Kettlewell Eye Research Institute", "lat": 37.791185, "lon": -122.43391, "terminated_loss": 3403.97350993377, "terminated_num": 1, "terminated_loss_noself": 3403.97350993377, "terminated_num_noself": 1}, {"org_name": "University of the District of Columbia", "lat": 38.944441, "lon": -77.064327, "terminated_loss": 492700.72, "terminated_num": 1, "terminated_loss_noself": 492700.72, "terminated_num_noself": 1}, {"org_name": "Monell Chemical Senses Center", "lat": 39.955743, "lon": -75.193059, "terminated_loss": 2907.31, "terminated_num": 1, "terminated_loss_noself": 2907.31, "terminated_num_noself": 1}, {"org_name": "Magee-Womens Research Institute", "lat": 40.437078, "lon": -79.96154, "terminated_loss": 4051053.63, "terminated_num": 2, "terminated_loss_noself": 4051053.63, "terminated_num_noself": 2}, {"org_name": "Carnegie-Mellon University", "lat": 40.442959, "lon": -79.941084, "terminated_loss": 1505.71428571429, "terminated_num": 1, "terminated_loss_noself": 1505.71428571429, "terminated_num_noself": 1}, {"org_name": "SUNY Downstate Medical Center", "lat": 40.65537, "lon": -73.945077, "terminated_loss": 557556.11, "terminated_num": 1, "terminated_loss_noself": 557556.11, "terminated_num_noself": 1}, {"org_name": "Father Flanagan's Boys' Home", "lat": 41.253446, "lon": -96.133857, "terminated_loss": 136610.982197802, "terminated_num": 2, "terminated_loss_noself": 136610.982197802, "terminated_num_noself": 2}, {"org_name": "Creighton University", "lat": 41.264296, "lon": -95.948089, "terminated_loss": 232290.09, "terminated_num": 2, "terminated_loss_noself": 232290.09, "terminated_num_noself": 2}, {"org_name": "University of Toledo Health Science Campus", "lat": 41.619554, "lon": -83.620727, "terminated_loss": 416111.25, "terminated_num": 1, "terminated_loss_noself": 416111.25, "terminated_num_noself": 1}, {"org_name": "Hebrew Rehabilitation Center for Aged", "lat": 42.296681, "lon": -71.130734, "terminated_loss": 4990952.92, "terminated_num": 1, "terminated_loss_noself": 4990952.92, "terminated_num_noself": 1}, {"org_name": "Tufts University Medford", "lat": 42.40117, "lon": -71.125362, "terminated_loss": 18636.74, "terminated_num": 3, "terminated_loss_noself": 18636.74, "terminated_num_noself": 1}, {"org_name": "University of South Dakota", "lat": 42.78263, "lon": -96.925433, "terminated_loss": 76578.0699999999, "terminated_num": 1, "terminated_loss_noself": 76578.0699999999, "terminated_num_noself": 1}, {"org_name": "SUNY Upstate Medical University", "lat": 43.042595, "lon": -76.14055, "terminated_loss": 6207.15, "terminated_num": 1, "terminated_loss_noself": 6207.15, "terminated_num_noself": 1}, {"org_name": "St. Catherine University", "lat": 44.924882, "lon": -93.183134, "terminated_loss": 641152.07, "terminated_num": 1, "terminated_loss_noself": 641152.07, "terminated_num_noself": 1}, {"org_name": "Hennepin Healthcare Research Institute", "lat": 44.972097, "lon": -93.262404, "terminated_loss": 259243.69, "terminated_num": 1, "terminated_loss_noself": 259243.69, "terminated_num_noself": 1}, {"org_name": "Hopa Mountain", "lat": 45.678023, "lon": -111.033007, "terminated_loss": 126731.06, "terminated_num": 1, "terminated_loss_noself": 126731.06, "terminated_num_noself": 1}]}