{"GRANT_LOSSES": [{"org_name": "University of Texas Medical Branch Galveston", "lat": 29.311028, "lon": -94.778007, "terminated_loss": 44997610.67, "terminated_num": 6, "terminated_loss_noself": 44997610.67, "terminated_num_noself": 6}, {"org_name": "University of Texas MD Anderson Cancer Center", "lat": 29.706319, "lon": -95.397195, "terminated_loss": 1183392.42, "terminated_num": 3, "terminated_loss_noself": 1183392.42, "terminated_num_noself": 3}, {"org_name": "Florida A&M University", "lat": 30.428914, "lon": -84.289766, "terminated_loss": 6912299.41, "terminated_num": 1, "terminated_loss_noself": 6912299.41, "terminated_num_noself": 1}, {"org_name": "University of Texas Southwestern Medical Center", "lat": 32.811963, "lon": -96.837534, "terminated_loss": 9077586.57372057, "terminated_num": 13, "terminated_loss_noself": 9077586.57372057, "terminated_num_noself": 12}, {"org_name": "Clark Atlanta University", "lat": 33.747725, "lon": -84.41301, "terminated_loss": 397805.39, "terminated_num": 2, "terminated_loss_noself": 397805.39, "terminated_num_noself": 1}, {"org_name": "Charles R. Drew University of Medicine & Science", "lat": 33.923952, "lon": -118.245687, "terminated_loss": 35864801.33, "terminated_num": 3, "terminated_loss_noself": 35864801.33, "terminated_num_noself": 2}, {"org_name": "Wake Forest University Health Sciences", "lat": 36.059402, "lon": -80.321981, "terminated_loss": 5365591.0, "terminated_num": 9, "terminated_loss_noself": 5365591.0, "terminated_num_noself": 9}, {"org_name": "Virginia Polytechnic Institute and State University", "lat": 37.233061, "lon": -80.421005, "terminated_loss": 7906404.37, "terminated_num": 10, "terminated_loss_noself": 7906404.37, "terminated_num_noself": 10}, {"org_name": "WETA TV 26", "lat": 38.84087, "lon": -77.086486, "terminated_loss": 65168.7, "terminated_num": 1, "terminated_loss_noself": 65168.7, "terminated_num_noself": 1}, {"org_name": "Indiana University", "lat": 39.172055, "lon": -86.523157, "terminated_loss": 36884.33, "terminated_num": 1, "terminated_loss_noself": 36884.33, "terminated_num_noself": 1}, {"org_name": "Rutgers, Camden", "lat": 39.947479, "lon": -75.123053, "terminated_loss": 82742.2, "terminated_num": 1, "terminated_loss_noself": 82742.2, "terminated_num_noself": 1}, {"org_name": "The Research Institute at Nationwide Children's Hospital", "lat": 39.95251, "lon": -82.979302, "terminated_loss": 1173879.99, "terminated_num": 3, "terminated_loss_noself": 1173879.99, "terminated_num_noself": 3}, {"org_name": "Rutgers, Newark", "lat": 40.740542, "lon": -74.172677, "terminated_loss": 149742.31, "terminated_num": 1, "terminated_loss_noself": 149742.31, "terminated_num_noself": 1}, {"org_name": "NDRI-USA, Inc.", "lat": 40.74287, "lon": -73.992333, "terminated_loss": 257235.38, "terminated_num": 1, "terminated_loss_noself": 257235.38, "terminated_num_noself": 1}, {"org_name": "Weill Medical College of Cornell University", "lat": 40.7607, "lon": -73.9603, "terminated_loss": 22692110.49, "terminated_num": 11, "terminated_loss_noself": 22692110.49, "terminated_num_noself": 11}, {"org_name": "The Research Foundation for Mental Hygiene, Inc.", "lat": 40.843076, "lon": -73.944206, "terminated_loss": 3454344.98, "terminated_num": 7, "terminated_loss_noself": 3454344.98, "terminated_num_noself": 7}, {"org_name": "Fordham University", "lat": 40.86209, "lon": -73.88639, "terminated_loss": 1509299.0, "terminated_num": 2, "terminated_loss_noself": 1509299.0, "terminated_num_noself": 2}, {"org_name": "Pennsylvania State University", "lat": 40.870717, "lon": -77.83415, "terminated_loss": 2887553.99, "terminated_num": 7, "terminated_loss_noself": 2887553.99, "terminated_num_noself": 5}, {"org_name": "Butler Hospital", "lat": 41.843586, "lon": -71.379656, "terminated_loss": 103572.21, "terminated_num": 1, "terminated_loss_noself": 103572.21, "terminated_num_noself": 1}, {"org_name": "University of Massachusetts Medical School Worcester", "lat": 42.2802, "lon": -71.758245, "terminated_loss": 3939059.52, "terminated_num": 9, "terminated_loss_noself": 3017450.1, "terminated_num_noself": 7}, {"org_name": "Rosalind Franklin University of Medicine & Science", "lat": 42.302294, "lon": -87.861378, "terminated_loss": 476022.61, "terminated_num": 1, "terminated_loss_noself": 476022.61, "terminated_num_noself": 1}, {"org_name": "Function Promoting Therapies, LLC", "lat": 42.33724, "lon": -71.10217, "terminated_loss": 2262195.07, "terminated_num": 1, "terminated_loss_noself": 2262195.07, "terminated_num_noself": 1}, {"org_name": "Henry Ford Health and Michigan State University Health Sciences", "lat": 42.653979, "lon": -84.492032, "terminated_loss": 1519244.64, "terminated_num": 4, "terminated_loss_noself": 1519244.64, "terminated_num_noself": 4}, {"org_name": "Van Andel Research Institute", "lat": 42.969389, "lon": -85.666402, "terminated_loss": 105648.66, "terminated_num": 1, "terminated_loss_noself": 105648.66, "terminated_num_noself": 1}, {"org_name": "University of Vermont and State Agricultural College", "lat": 44.478282, "lon": -73.201079, "terminated_loss": 184979.46, "terminated_num": 1, "terminated_loss_noself": 184979.46, "terminated_num_noself": 1}, {"org_name": "Boston University", "lat": 42.33639, "lon": -71.07097, "terminated_loss": 4490249.03, "terminated_num": 11, "terminated_loss_noself": 4490249.03, "terminated_num_noself": 10}, {"org_name": "Tufts University", "lat": 42.3498, "lon": -71.06149, "terminated_loss": 7417446.68, "terminated_num": 7, "terminated_loss_noself": 7417446.68, "terminated_num_noself": 7}, {"org_name": "Columbia University", "lat": 40.8415, "lon": -73.9414, "terminated_loss": 397029240.46, "terminated_num": 183, "terminated_loss_noself": 368146210.61, "terminated_num_noself": 162}, {"org_name": "University of Miami", "lat": 25.713468, "lon": -80.277246, "terminated_loss": 7036851.74417582, "terminated_num": 22, "terminated_loss_noself": 7036851.74417582, "terminated_num_noself": 21}, {"org_name": "University of Hawaii at Manoa", "lat": 21.299198, "lon": -157.820371, "terminated_loss": 11102196.2, "terminated_num": 10, "terminated_loss_noself": 11102196.2, "terminated_num_noself": 9}, {"org_name": "Florida International University", "lat": 25.761055, "lon": -80.376195, "terminated_loss": 15449611.11, "terminated_num": 6, "terminated_loss_noself": 15449611.11, "terminated_num_noself": 6}, {"org_name": "Nova Southeastern University", "lat": 26.07761, "lon": -80.242565, "terminated_loss": 47184.02, "terminated_num": 1, "terminated_loss_noself": 47184.02, "terminated_num_noself": 1}, {"org_name": "University of Central Florida", "lat": 28.601027, "lon": -81.197266, "terminated_loss": 3287121.08, "terminated_num": 5, "terminated_loss_noself": 3287121.08, "terminated_num_noself": 5}, {"org_name": "St. Mary's University", "lat": 29.451933, "lon": -98.560605, "terminated_loss": 57055.58, "terminated_num": 1, "terminated_loss_noself": 57055.58, "terminated_num_noself": 1}, {"org_name": "University of Texas San Antonio", "lat": 29.567119, "lon": -98.605723, "terminated_loss": 2643423.43, "terminated_num": 8, "terminated_loss_noself": 2643423.43, "terminated_num_noself": 8}, {"org_name": "University of Florida", "lat": 29.643443, "lon": -82.349637, "terminated_loss": 5028092.16, "terminated_num": 17, "terminated_loss_noself": 5028092.16, "terminated_num_noself": 13}, {"org_name": "Baylor College of Medicine", "lat": 29.70926, "lon": -95.400851, "terminated_loss": 8159830.83657143, "terminated_num": 18, "terminated_loss_noself": 8134455.42657143, "terminated_num_noself": 14}, {"org_name": "University of Houston", "lat": 29.718091, "lon": -95.336483, "terminated_loss": 919520.91, "terminated_num": 4, "terminated_loss_noself": 919520.91, "terminated_num_noself": 4}, {"org_name": "Texas State University", "lat": 29.888774, "lon": -97.937445, "terminated_loss": 702480.41, "terminated_num": 2, "terminated_loss_noself": 476085.43, "terminated_num_noself": 1}, {"org_name": "Tulane University of Louisiana", "lat": 29.935429, "lon": -90.12279, "terminated_loss": 4135407.44, "terminated_num": 5, "terminated_loss_noself": 4135407.44, "terminated_num_noself": 5}, {"org_name": "University of Texas at Austin", "lat": 30.291188, "lon": -97.737568, "terminated_loss": 3741169.26, "terminated_num": 5, "terminated_loss_noself": 3741169.26, "terminated_num_noself": 5}, {"org_name": "Louisiana State University A&M College Baton Rouge", "lat": 30.408018, "lon": -91.188669, "terminated_loss": 387418.848791209, "terminated_num": 5, "terminated_loss_noself": 387418.848791209, "terminated_num_noself": 5}, {"org_name": "Florida State University", "lat": 30.441455, "lon": -84.297889, "terminated_loss": 9858922.69, "terminated_num": 7, "terminated_loss_noself": 9858922.69, "terminated_num_noself": 7}, {"org_name": "University of Texas El Paso", "lat": 31.770518, "lon": -106.504149, "terminated_loss": 3836820.53, "terminated_num": 4, "terminated_loss_noself": 3836820.53, "terminated_num_noself": 4}, {"org_name": "University of Arizona", "lat": 32.232844, "lon": -110.959467, "terminated_loss": 7711422.39950495, "terminated_num": 17, "terminated_loss_noself": 7022504.97950495, "terminated_num_noself": 15}, {"org_name": "University of Mississippi Medical Center", "lat": 32.328724, "lon": -90.175537, "terminated_loss": 1188995.38, "terminated_num": 4, "terminated_loss_noself": 1188995.38, "terminated_num_noself": 4}, {"org_name": "Auburn University at Auburn", "lat": 32.602139, "lon": -85.508496, "terminated_loss": 1041283.02, "terminated_num": 2, "terminated_loss_noself": 1041283.02, "terminated_num_noself": 2}, {"org_name": "University of North Texas Health Science Center", "lat": 32.749542, "lon": -97.36903, "terminated_loss": 10373954.0, "terminated_num": 3, "terminated_loss_noself": 10373954.0, "terminated_num_noself": 3}, {"org_name": "San Diego State University", "lat": 32.762178, "lon": -117.069156, "terminated_loss": 15544377.41, "terminated_num": 13, "terminated_loss_noself": 15544377.41, "terminated_num_noself": 13}, {"org_name": "Medical University of South Carolina", "lat": 32.786754, "lon": -79.947265, "terminated_loss": 2214918.34571429, "terminated_num": 9, "terminated_loss_noself": 2214918.34571429, "terminated_num_noself": 8}, {"org_name": "University of California, San Diego", "lat": 32.876991, "lon": -117.24087, "terminated_loss": 28542438.97, "terminated_num": 28, "terminated_loss_noself": 28542438.97, "terminated_num_noself": 25}, {"org_name": "Scripps Research Institute, the", "lat": 32.903062, "lon": -117.243592, "terminated_loss": 3580256.46, "terminated_num": 1, "terminated_loss_noself": 3580256.46, "terminated_num_noself": 1}, {"org_name": "Arizona State University-Tempe Campus", "lat": 33.423954, "lon": -111.940687, "terminated_loss": 1115149.46, "terminated_num": 5, "terminated_loss_noself": 1115149.46, "terminated_num_noself": 4}, {"org_name": "Center for Innovative Public Health Research", "lat": 33.430039, "lon": -117.616549, "terminated_loss": 2600670.0, "terminated_num": 3, "terminated_loss_noself": 2600670.0, "terminated_num_noself": 3}, {"org_name": "Banner Health", "lat": 33.433422, "lon": -112.087594, "terminated_loss": 3886206.27, "terminated_num": 1, "terminated_loss_noself": 3886206.27, "terminated_num_noself": 1}, {"org_name": "University of Alabama at Birmingham", "lat": 33.50591, "lon": -86.799772, "terminated_loss": 18410765.27, "terminated_num": 20, "terminated_loss_noself": 18410765.27, "terminated_num_noself": 20}, {"org_name": "Texas Tech University", "lat": 33.584696, "lon": -101.872767, "terminated_loss": 195715.16, "terminated_num": 1, "terminated_loss_noself": 195715.16, "terminated_num_noself": 1}, {"org_name": "University of California-Irvine", "lat": 33.64852, "lon": -117.82136, "terminated_loss": 6485989.85164835, "terminated_num": 23, "terminated_loss_noself": 6485989.85164835, "terminated_num_noself": 21}, {"org_name": "Spelman College", "lat": 33.745247, "lon": -84.411462, "terminated_loss": 5488977.23, "terminated_num": 2, "terminated_loss_noself": 5488977.23, "terminated_num_noself": 2}, {"org_name": "Morehouse School of Medicine", "lat": 33.746607, "lon": -84.414781, "terminated_loss": 4465257.25, "terminated_num": 3, "terminated_loss_noself": 4465257.25, "terminated_num_noself": 3}, {"org_name": "Georgia State University", "lat": 33.753531, "lon": -84.384483, "terminated_loss": 983059.85, "terminated_num": 5, "terminated_loss_noself": 983059.85, "terminated_num_noself": 5}, {"org_name": "Emory University", "lat": 33.791247, "lon": -84.3249, "terminated_loss": 31531266.1, "terminated_num": 32, "terminated_loss_noself": 31531266.1, "terminated_num_noself": 30}, {"org_name": "California State University Fullerton", "lat": 33.8781, "lon": -117.884245, "terminated_loss": 804237.98, "terminated_num": 3, "terminated_loss_noself": 804237.98, "terminated_num_noself": 3}, {"org_name": "University of Georgia", "lat": 33.931173, "lon": -83.378873, "terminated_loss": 3733351.35, "terminated_num": 5, "terminated_loss_noself": 3733351.35, "terminated_num_noself": 5}, {"org_name": "Loyola Marymount University", "lat": 33.969677, "lon": -118.416139, "terminated_loss": 509238.63, "terminated_num": 1, "terminated_loss_noself": 509238.63, "terminated_num_noself": 1}, {"org_name": "University of South Carolina at Columbia", "lat": 33.999623, "lon": -81.028249, "terminated_loss": 7677384.32, "terminated_num": 10, "terminated_loss_noself": 7677384.32, "terminated_num_noself": 9}, {"org_name": "Rand Corporation", "lat": 34.009659, "lon": -118.490943, "terminated_loss": 4929775.34, "terminated_num": 4, "terminated_loss_noself": 4929775.34, "terminated_num_noself": 4}, {"org_name": "University of Southern California", "lat": 34.017282, "lon": -118.281254, "terminated_loss": 4450615.10153846, "terminated_num": 19, "terminated_loss_noself": 4450615.10153846, "terminated_num_noself": 17}, {"org_name": "Public Health Foundation Enterprises", "lat": 34.029482, "lon": -118.023269, "terminated_loss": 2195064.13, "terminated_num": 4, "terminated_loss_noself": 2195064.13, "terminated_num_noself": 4}, {"org_name": "Kennesaw State University", "lat": 34.034315, "lon": -84.574275, "terminated_loss": 696259.68, "terminated_num": 2, "terminated_loss_noself": 696259.68, "terminated_num_noself": 2}, {"org_name": "University of California Los Angeles", "lat": 34.070199, "lon": -118.45102, "terminated_loss": 13302242.2558937, "terminated_num": 24, "terminated_loss_noself": 13302242.2558937, "terminated_num_noself": 21}, {"org_name": "Children's Hospital of Los Angeles", "lat": 34.098065, "lon": -118.29069, "terminated_loss": 12745376.5772527, "terminated_num": 2, "terminated_loss_noself": 12745376.5772527, "terminated_num_noself": 2}, {"org_name": "California State University Northridge", "lat": 34.245875, "lon": -118.501885, "terminated_loss": 637368.91, "terminated_num": 1, "terminated_loss_noself": 637368.91, "terminated_num_noself": 1}, {"org_name": "University of Mississippi", "lat": 34.36739, "lon": -89.528956, "terminated_loss": 666950.02, "terminated_num": 4, "terminated_loss_noself": 666950.02, "terminated_num_noself": 4}, {"org_name": "University of California Santa Barbara", "lat": 34.431306, "lon": -119.834277, "terminated_loss": 803246.81, "terminated_num": 4, "terminated_loss_noself": 803246.81, "terminated_num_noself": 4}, {"org_name": "University of North Carolina at Pembroke", "lat": 34.694134, "lon": -79.198114, "terminated_loss": 46186.43, "terminated_num": 1, "terminated_loss_noself": 46186.43, "terminated_num_noself": 1}, {"org_name": "University of Arkansas for Medical Sciences", "lat": 34.749005, "lon": -92.320097, "terminated_loss": 2305796.79373444, "terminated_num": 6, "terminated_loss_noself": 2305796.79373444, "terminated_num_noself": 6}, {"org_name": "University of Tennessee Chattanooga", "lat": 35.045822, "lon": -85.299815, "terminated_loss": 224753.34, "terminated_num": 1, "terminated_loss_noself": 224753.34, "terminated_num_noself": 1}, {"org_name": "University of New Mexico", "lat": 35.090226, "lon": -106.625292, "terminated_loss": 12172793.7, "terminated_num": 3, "terminated_loss_noself": 12172793.7, "terminated_num_noself": 3}, {"org_name": "University of New Mexico Health Sciences Center", "lat": 35.090968, "lon": -106.617544, "terminated_loss": 11138442.85, "terminated_num": 4, "terminated_loss_noself": 158168.25, "terminated_num_noself": 3}, {"org_name": "University of Memphis", "lat": 35.120123, "lon": -89.939705, "terminated_loss": 9625.8, "terminated_num": 1, "terminated_loss_noself": 9625.8, "terminated_num_noself": 1}, {"org_name": "University of North Carolina Charlotte", "lat": 35.301652, "lon": -80.731452, "terminated_loss": 1263352.66, "terminated_num": 3, "terminated_loss_noself": 1263352.66, "terminated_num_noself": 3}, {"org_name": "University of Oklahoma Health Sciences Center", "lat": 35.47459, "lon": -97.505034, "terminated_loss": 1630533.55120879, "terminated_num": 8, "terminated_loss_noself": 1630533.55120879, "terminated_num_noself": 8}, {"org_name": "Cherokee Nation", "lat": 35.85318, "lon": -94.99067, "terminated_loss": 1192939.12, "terminated_num": 2, "terminated_loss_noself": 1192939.12, "terminated_num_noself": 2}, {"org_name": "Research Triangle Institute", "lat": 35.9138, "lon": -78.848911, "terminated_loss": 1137355.66263736, "terminated_num": 4, "terminated_loss_noself": 1137355.66263736, "terminated_num_noself": 3}, {"org_name": "University of North Carolina Chapel Hill", "lat": 35.9316, "lon": -79.057377, "terminated_loss": 22899775.7303297, "terminated_num": 28, "terminated_loss_noself": 18127524.7503297, "terminated_num_noself": 26}, {"org_name": "University of Tennessee Knoxville", "lat": 35.954943, "lon": -83.93035, "terminated_loss": 14549.29, "terminated_num": 2, "terminated_loss_noself": 14549.29, "terminated_num_noself": 1}, {"org_name": "Innovation Research and Training, Inc.", "lat": 35.964557, "lon": -78.940527, "terminated_loss": 114998.7, "terminated_num": 1, "terminated_loss_noself": 114998.7, "terminated_num_noself": 1}, {"org_name": "Family Health International", "lat": 35.992834, "lon": -78.903914, "terminated_loss": 425648342.85, "terminated_num": 1, "terminated_loss_noself": 425648342.85, "terminated_num_noself": 1}, {"org_name": "Duke University", "lat": 36.007766, "lon": -78.926475, "terminated_loss": 8911947.49769231, "terminated_num": 25, "terminated_loss_noself": 8590460.50769231, "terminated_num_noself": 19}, {"org_name": "University of Nevada Las Vegas", "lat": 36.109517, "lon": -115.141947, "terminated_loss": 5625514.06, "terminated_num": 4, "terminated_loss_noself": 5625514.06, "terminated_num_noself": 4}, {"org_name": "Oklahoma State University Stillwater", "lat": 36.115627, "lon": -97.058038, "terminated_loss": 315497.89, "terminated_num": 1, "terminated_loss_noself": 315497.89, "terminated_num_noself": 1}, {"org_name": "Vanderbilt University", "lat": 36.143381, "lon": -86.803365, "terminated_loss": 10714991.0260581, "terminated_num": 20, "terminated_loss_noself": 10714991.0260581, "terminated_num_noself": 18}, {"org_name": "Meharry Medical College", "lat": 36.166904, "lon": -86.806149, "terminated_loss": 25842337.5, "terminated_num": 4, "terminated_loss_noself": 25842337.5, "terminated_num_noself": 4}, {"org_name": "University of California Santa Cruz", "lat": 36.97756, "lon": -122.055836, "terminated_loss": 7590951.0, "terminated_num": 7, "terminated_loss_noself": 7590951.0, "terminated_num_noself": 7}, {"org_name": "San Jose State University", "lat": 37.340938, "lon": -121.889413, "terminated_loss": 11759.48, "terminated_num": 1, "terminated_loss_noself": 11759.48, "terminated_num_noself": 1}, {"org_name": "Stanford University", "lat": 37.426852, "lon": -122.17047, "terminated_loss": 9627989.38808824, "terminated_num": 18, "terminated_loss_noself": 9627989.38808824, "terminated_num_noself": 18}, {"org_name": "Virginia Commonwealth University", "lat": 37.549807, "lon": -77.452775, "terminated_loss": 7467182.27, "terminated_num": 11, "terminated_loss_noself": 7467182.27, "terminated_num_noself": 9}, {"org_name": "San Francisco State University", "lat": 37.72091, "lon": -122.476074, "terminated_loss": 1424087.81, "terminated_num": 3, "terminated_loss_noself": 1424087.81, "terminated_num_noself": 3}, {"org_name": "University of California, San Francisco", "lat": 37.767442, "lon": -122.413937, "terminated_loss": 31081121.7244444, "terminated_num": 46, "terminated_loss_noself": 30179201.6944444, "terminated_num_noself": 42}, {"org_name": "University of San Francisco", "lat": 37.775292, "lon": -122.451727, "terminated_loss": 555384.5, "terminated_num": 2, "terminated_loss_noself": 555384.5, "terminated_num_noself": 1}, {"org_name": "Kaiser Foundation Research Institute", "lat": 37.805769, "lon": -122.265214, "terminated_loss": 533859.37, "terminated_num": 1, "terminated_loss_noself": 0.0, "terminated_num_noself": 0}, {"org_name": "University of California Berkeley", "lat": 37.870017, "lon": -122.268624, "terminated_loss": 5357889.9, "terminated_num": 16, "terminated_loss_noself": 5357889.9, "terminated_num_noself": 16}, {"org_name": "University of the Pacific-Stockton", "lat": 37.984345, "lon": -121.309964, "terminated_loss": 425200.62, "terminated_num": 1, "terminated_loss_noself": 425200.62, "terminated_num_noself": 1}, {"org_name": "University of Kentucky", "lat": 38.040959, "lon": -84.505885, "terminated_loss": 3140915.33, "terminated_num": 6, "terminated_loss_noself": 3140915.33, "terminated_num_noself": 5}, {"org_name": "University of Virginia", "lat": 38.050527, "lon": -78.500531, "terminated_loss": 23865153.62, "terminated_num": 10, "terminated_loss_noself": 23865153.62, "terminated_num_noself": 10}, {"org_name": "University of Louisville", "lat": 38.215024, "lon": -85.760145, "terminated_loss": 2987147.37, "terminated_num": 7, "terminated_loss_noself": 2987147.37, "terminated_num_noself": 7}, {"org_name": "Neurovations", "lat": 38.325376, "lon": -122.291992, "terminated_loss": 4347102.21, "terminated_num": 1, "terminated_loss_noself": 4347102.21, "terminated_num_noself": 1}, {"org_name": "University of California at Davis", "lat": 38.543366, "lon": -121.72946, "terminated_loss": 8523053.11, "terminated_num": 22, "terminated_loss_noself": 8523053.11, "terminated_num_noself": 20}, {"org_name": "Washington University", "lat": 38.664368, "lon": -90.323797, "terminated_loss": 15835124.39, "terminated_num": 27, "terminated_loss_noself": 14749203.73, "terminated_num_noself": 25}, {"org_name": "George Washington University", "lat": 38.898075, "lon": -77.043933, "terminated_loss": 3681326.36, "terminated_num": 6, "terminated_loss_noself": 3681326.36, "terminated_num_noself": 6}, {"org_name": "Gerontological Society of America", "lat": 38.903389, "lon": -77.029146, "terminated_loss": 1043970.63, "terminated_num": 2, "terminated_loss_noself": 1043970.63, "terminated_num_noself": 1}, {"org_name": "Whitman-Walker Institute, Inc.", "lat": 38.9127, "lon": -77.031423, "terminated_loss": 1532010.33, "terminated_num": 2, "terminated_loss_noself": 1532010.33, "terminated_num_noself": 2}, {"org_name": "Children's Research Institute", "lat": 38.927274, "lon": -77.014396, "terminated_loss": 1461561.37, "terminated_num": 3, "terminated_loss_noself": 1461561.37, "terminated_num_noself": 3}, {"org_name": "Us Helping Us, People Into Living, Inc.", "lat": 38.935098, "lon": -77.024402, "terminated_loss": 114194.0, "terminated_num": 1, "terminated_loss_noself": 114194.0, "terminated_num_noself": 1}, {"org_name": "University of Maryland, College Park", "lat": 38.992333, "lon": -76.952986, "terminated_loss": 3545529.52, "terminated_num": 8, "terminated_loss_noself": 3545529.52, "terminated_num_noself": 8}, {"org_name": "University of Missouri Kansas City", "lat": 39.034521, "lon": -94.575773, "terminated_loss": 815550.82, "terminated_num": 1, "terminated_loss_noself": 815550.82, "terminated_num_noself": 1}, {"org_name": "Pacific Institute for Research and Evaluation", "lat": 39.050676, "lon": -76.93727, "terminated_loss": 1208607.36, "terminated_num": 2, "terminated_loss_noself": 1208607.36, "terminated_num_noself": 2}, {"org_name": "Westat, Inc.", "lat": 39.094626, "lon": -77.181453, "terminated_loss": 10317272.5, "terminated_num": 1, "terminated_loss_noself": 10317272.5, "terminated_num_noself": 1}, {"org_name": "University of Cincinnati", "lat": 39.129719, "lon": -84.520554, "terminated_loss": 3701011.32, "terminated_num": 5, "terminated_loss_noself": 3701011.32, "terminated_num_noself": 5}, {"org_name": "University of Maryland Baltimore", "lat": 39.292248, "lon": -76.625629, "terminated_loss": 15180808.55, "terminated_num": 14, "terminated_loss_noself": 15180808.55, "terminated_num_noself": 14}, {"org_name": "Friends Research Institute, Inc.", "lat": 39.303676, "lon": -76.619888, "terminated_loss": 1419942.37, "terminated_num": 2, "terminated_loss_noself": 1419942.37, "terminated_num_noself": 2}, {"org_name": "Johns Hopkins University", "lat": 39.325256, "lon": -76.605131, "terminated_loss": 17575294.53, "terminated_num": 29, "terminated_loss_noself": 17575294.53, "terminated_num_noself": 29}, {"org_name": "University of Nevada Reno", "lat": 39.545077, "lon": -119.818277, "terminated_loss": 357305.038461538, "terminated_num": 4, "terminated_loss_noself": 357305.038461538, "terminated_num_noself": 4}, {"org_name": "University of Denver (Colorado Seminary)", "lat": 39.676639, "lon": -104.959481, "terminated_loss": 995920.28, "terminated_num": 1, "terminated_loss_noself": 995920.28, "terminated_num_noself": 1}, {"org_name": "Denver Health and Hospital Authority", "lat": 39.727302, "lon": -104.991569, "terminated_loss": 138989.95, "terminated_num": 1, "terminated_loss_noself": 138989.95, "terminated_num_noself": 1}, {"org_name": "University of Colorado Denver", "lat": 39.745098, "lon": -104.837605, "terminated_loss": 9074096.70087912, "terminated_num": 27, "terminated_loss_noself": 9074096.70087912, "terminated_num_noself": 26}, {"org_name": "Children's Hospital of Philadelphia", "lat": 39.946632, "lon": -75.196604, "terminated_loss": 2062405.82285714, "terminated_num": 7, "terminated_loss_noself": 2062405.82285714, "terminated_num_noself": 7}, {"org_name": "University of Pennsylvania", "lat": 39.953462, "lon": -75.193983, "terminated_loss": 14485771.1053846, "terminated_num": 27, "terminated_loss_noself": 14485771.1053846, "terminated_num_noself": 26}, {"org_name": "Drexel University", "lat": 39.954073, "lon": -75.186541, "terminated_loss": 7998787.04, "terminated_num": 8, "terminated_loss_noself": 7998787.04, "terminated_num_noself": 8}, {"org_name": "Temple University of the Commonwealth", "lat": 39.980272, "lon": -75.157051, "terminated_loss": 2069902.83934066, "terminated_num": 7, "terminated_loss_noself": 2069902.83934066, "terminated_num_noself": 7}, {"org_name": "Ohio State University", "lat": 39.999598, "lon": -83.033131, "terminated_loss": 10579378.29, "terminated_num": 17, "terminated_loss_noself": 10579378.29, "terminated_num_noself": 17}, {"org_name": "University of Illinois at Urbana-Champaign", "lat": 40.116857, "lon": -88.228755, "terminated_loss": 54655.6, "terminated_num": 1, "terminated_loss_noself": 54655.6, "terminated_num_noself": 1}, {"org_name": "Pennsylvania State University Hershey Medical Center", "lat": 40.264414, "lon": -76.674014, "terminated_loss": 4748504.14, "terminated_num": 3, "terminated_loss_noself": 4748504.14, "terminated_num_noself": 3}, {"org_name": "Princeton University", "lat": 40.345441, "lon": -74.655866, "terminated_loss": 188828.56, "terminated_num": 5, "terminated_loss_noself": 160543.66, "terminated_num_noself": 3}, {"org_name": "Purdue University", "lat": 40.41872, "lon": -86.910361, "terminated_loss": 303659.72, "terminated_num": 4, "terminated_loss_noself": 303659.72, "terminated_num_noself": 3}, {"org_name": "Duquesne University", "lat": 40.437818, "lon": -79.993649, "terminated_loss": 92040.95, "terminated_num": 1, "terminated_loss_noself": 92040.95, "terminated_num_noself": 1}, {"org_name": "University of Pittsburgh at Pittsburgh", "lat": 40.440909, "lon": -79.959125, "terminated_loss": 11430326.1, "terminated_num": 31, "terminated_loss_noself": 11246471.56, "terminated_num_noself": 28}, {"org_name": "Rutgers Biomedical and Health Sciences", "lat": 40.520984, "lon": -74.473247, "terminated_loss": 4749598.37, "terminated_num": 11, "terminated_loss_noself": 4749598.37, "terminated_num_noself": 11}, {"org_name": "Brooklyn College", "lat": 40.631637, "lon": -73.952868, "terminated_loss": 10922.68, "terminated_num": 1, "terminated_loss_noself": 10922.68, "terminated_num_noself": 1}, {"org_name": "New York University School of Medicine", "lat": 40.669895, "lon": -73.974354, "terminated_loss": 4360702.86, "terminated_num": 10, "terminated_loss_noself": 4360702.86, "terminated_num_noself": 9}, {"org_name": "New York University", "lat": 40.729659, "lon": -73.997018, "terminated_loss": 2684695.69, "terminated_num": 7, "terminated_loss_noself": 2684695.69, "terminated_num_noself": 7}, {"org_name": "New School University", "lat": 40.735382, "lon": -73.997241, "terminated_loss": 41180.64, "terminated_num": 1, "terminated_loss_noself": 41180.64, "terminated_num_noself": 1}, {"org_name": "Queens College", "lat": 40.735855, "lon": -73.815751, "terminated_loss": 11579.96, "terminated_num": 1, "terminated_loss_noself": 11579.96, "terminated_num_noself": 1}, {"org_name": "Ecohealth Alliance, Inc.", "lat": 40.754061, "lon": -73.998951, "terminated_loss": 5716314.4, "terminated_num": 4, "terminated_loss_noself": 0.0, "terminated_num_noself": 0}, {"org_name": "Sloan-Kettering Inst Can Research", "lat": 40.764045, "lon": -73.956024, "terminated_loss": 116261.0, "terminated_num": 2, "terminated_loss_noself": 116261.0, "terminated_num_noself": 1}, {"org_name": "University of Utah", "lat": 40.764542, "lon": -111.850317, "terminated_loss": 1864481.99, "terminated_num": 12, "terminated_loss_noself": 1864481.99, "terminated_num_noself": 10}, {"org_name": "New York Blood Center", "lat": 40.76519, "lon": -73.959922, "terminated_loss": 432943.36, "terminated_num": 2, "terminated_loss_noself": 432943.36, "terminated_num_noself": 2}, {"org_name": "Hunter College", "lat": 40.768737, "lon": -73.965182, "terminated_loss": 740708.63, "terminated_num": 5, "terminated_loss_noself": 740708.63, "terminated_num_noself": 5}, {"org_name": "Icahn School of Medicine at Mount Sinai", "lat": 40.790284, "lon": -73.946781, "terminated_loss": 17409890.22, "terminated_num": 16, "terminated_loss_noself": 17409890.22, "terminated_num_noself": 13}, {"org_name": "City College of New York", "lat": 40.819407, "lon": -73.950169, "terminated_loss": 315433.07, "terminated_num": 2, "terminated_loss_noself": 315433.07, "terminated_num_noself": 2}, {"org_name": "University of Nebraska Lincoln", "lat": 40.823017, "lon": -96.673442, "terminated_loss": 790935.84, "terminated_num": 4, "terminated_loss_noself": 790935.84, "terminated_num_noself": 4}, {"org_name": "Albert Einstein College of Medicine", "lat": 40.85103, "lon": -73.844379, "terminated_loss": 1905414.18, "terminated_num": 11, "terminated_loss_noself": 1905414.18, "terminated_num_noself": 11}, {"org_name": "Hackensack University Medical Center", "lat": 40.883415, "lon": -74.055652, "terminated_loss": 84046.33, "terminated_num": 1, "terminated_loss_noself": 84046.33, "terminated_num_noself": 1}, {"org_name": "State University New York Stony Brook", "lat": 40.914561, "lon": -73.125169, "terminated_loss": 3362610.51, "terminated_num": 5, "terminated_loss_noself": 3362610.51, "terminated_num_noself": 4}, {"org_name": "Silverbills Inc.", "lat": 40.946852, "lon": -73.772045, "terminated_loss": 114680.93, "terminated_num": 1, "terminated_loss_noself": 114680.93, "terminated_num_noself": 1}, {"org_name": "Yale University", "lat": 41.310925, "lon": -72.926428, "terminated_loss": 15564073.14, "terminated_num": 35, "terminated_loss_noself": 15523984.02, "terminated_num_noself": 32}, {"org_name": "Pro-Change Behavior Systems, Inc.", "lat": 41.451027, "lon": -71.497523, "terminated_loss": 87678.57, "terminated_num": 1, "terminated_loss_noself": 87678.57, "terminated_num_noself": 1}, {"org_name": "University of Rhode Island", "lat": 41.486042, "lon": -71.528656, "terminated_loss": 901462.27, "terminated_num": 2, "terminated_loss_noself": 901462.27, "terminated_num_noself": 2}, {"org_name": "Case Western Reserve University", "lat": 41.502739, "lon": -81.607334, "terminated_loss": 4083029.68, "terminated_num": 9, "terminated_loss_noself": 4083029.68, "terminated_num_noself": 8}, {"org_name": "University of Iowa", "lat": 41.664405, "lon": -91.542152, "terminated_loss": 757650.305315315, "terminated_num": 7, "terminated_loss_noself": 757650.305315315, "terminated_num_noself": 5}, {"org_name": "National Opinion Research Center", "lat": 41.785875, "lon": -87.597545, "terminated_loss": 215547.58, "terminated_num": 2, "terminated_loss_noself": 215547.58, "terminated_num_noself": 2}, {"org_name": "University of Chicago", "lat": 41.789554, "lon": -87.601172, "terminated_loss": 13020788.6113537, "terminated_num": 13, "terminated_loss_noself": 13020788.6113537, "terminated_num_noself": 13}, {"org_name": "Emma Pendleton Bradley Hospital", "lat": 41.792379, "lon": -71.367401, "terminated_loss": 335420.93, "terminated_num": 2, "terminated_loss_noself": 335420.93, "terminated_num_noself": 2}, {"org_name": "Resilient Games Studio, LLC", "lat": 41.798959, "lon": -87.598077, "terminated_loss": 84777.53, "terminated_num": 1, "terminated_loss_noself": 84777.53, "terminated_num_noself": 1}, {"org_name": "University of Connecticut Storrs", "lat": 41.811419, "lon": -72.247553, "terminated_loss": 1404919.47285714, "terminated_num": 6, "terminated_loss_noself": 1404919.47285714, "terminated_num_noself": 6}, {"org_name": "Rhode Island Hospital", "lat": 41.811681, "lon": -71.409371, "terminated_loss": 517909.65, "terminated_num": 4, "terminated_loss_noself": 517909.65, "terminated_num_noself": 2}, {"org_name": "Brown University", "lat": 41.826136, "lon": -71.404513, "terminated_loss": 7010874.13461538, "terminated_num": 16, "terminated_loss_noself": 6996762.13461538, "terminated_num_noself": 13}, {"org_name": "Illinois Institute of Technology", "lat": 41.831064, "lon": -87.629049, "terminated_loss": 196611.92, "terminated_num": 1, "terminated_loss_noself": 196611.92, "terminated_num_noself": 1}, {"org_name": "University of Illinois at Chicago", "lat": 41.871509, "lon": -87.667721, "terminated_loss": 4331331.14, "terminated_num": 7, "terminated_loss_noself": 4331331.14, "terminated_num_noself": 7}, {"org_name": "Rush University Medical Center", "lat": 41.87506, "lon": -87.668327, "terminated_loss": 1934012.27, "terminated_num": 3, "terminated_loss_noself": 1934012.27, "terminated_num_noself": 3}, {"org_name": "Lurie Children's Hospital of Chicago", "lat": 41.896663, "lon": -87.622919, "terminated_loss": 179368.0, "terminated_num": 1, "terminated_loss_noself": 179368.0, "terminated_num_noself": 1}, {"org_name": "Endeavor Health Clinical Operations", "lat": 42.064695, "lon": -87.689868, "terminated_loss": 1380567.55, "terminated_num": 1, "terminated_loss_noself": 1380567.55, "terminated_num_noself": 1}, {"org_name": "Eastern Michigan University", "lat": 42.233132, "lon": -83.623767, "terminated_loss": 952548.23, "terminated_num": 1, "terminated_loss_noself": 952548.23, "terminated_num_noself": 1}, {"org_name": "University of Michigan at Ann Arbor", "lat": 42.275494, "lon": -83.743038, "terminated_loss": 23799134.9117582, "terminated_num": 33, "terminated_loss_noself": 23799134.9117582, "terminated_num_noself": 29}, {"org_name": "Harvard Pilgrim Health Care, Inc.", "lat": 42.316808, "lon": -71.234595, "terminated_loss": 3830024.58, "terminated_num": 5, "terminated_loss_noself": 3830024.58, "terminated_num_noself": 5}, {"org_name": "Harvard School of Public Health", "lat": 42.335306, "lon": -71.102775, "terminated_loss": 590107826.36, "terminated_num": 157, "terminated_loss_noself": 578881434.13, "terminated_num_noself": 152}, {"org_name": "Boston Medical Center", "lat": 42.336854, "lon": -71.070881, "terminated_loss": 171615.54, "terminated_num": 2, "terminated_loss_noself": 171615.54, "terminated_num_noself": 2}, {"org_name": "Boston College", "lat": 42.336956, "lon": -71.170504, "terminated_loss": 3376275.21, "terminated_num": 5, "terminated_loss_noself": 3376275.21, "terminated_num_noself": 4}, {"org_name": "Boston Children's Hospital", "lat": 42.337481, "lon": -71.104964, "terminated_loss": 3626133.564467, "terminated_num": 10, "terminated_loss_noself": 3626133.564467, "terminated_num_noself": 10}, {"org_name": "Beth Israel Deaconess Medical Center", "lat": 42.33982, "lon": -71.10568, "terminated_loss": 474125.39, "terminated_num": 3, "terminated_loss_noself": 474125.39, "terminated_num_noself": 3}, {"org_name": "Northeastern University", "lat": 42.340048, "lon": -71.088892, "terminated_loss": 1135546.91, "terminated_num": 4, "terminated_loss_noself": 1135546.91, "terminated_num_noself": 4}, {"org_name": "Fenway Community Health Center", "lat": 42.34412, "lon": -71.098412, "terminated_loss": 411683.52, "terminated_num": 1, "terminated_loss_noself": 411683.52, "terminated_num_noself": 1}, {"org_name": "Broad Institute, Inc.", "lat": 42.363082, "lon": -71.087893, "terminated_loss": 7920606.23, "terminated_num": 2, "terminated_loss_noself": 7920606.23, "terminated_num_noself": 2}, {"org_name": "Harvard University", "lat": 42.369697, "lon": -71.11193, "terminated_loss": 171947205.87, "terminated_num": 139, "terminated_loss_noself": 171013178.63, "terminated_num_noself": 134}, {"org_name": "Ibis Reproductive Health", "lat": 42.372813, "lon": -71.119098, "terminated_loss": 214131.0, "terminated_num": 1, "terminated_loss_noself": 214131.0, "terminated_num_noself": 1}, {"org_name": "Cambridge Health Alliance", "lat": 42.374417, "lon": -71.104436, "terminated_loss": 1712200.84, "terminated_num": 2, "terminated_loss_noself": 1712200.84, "terminated_num_noself": 2}, {"org_name": "University of Massachusetts Amherst", "lat": 42.386914, "lon": -72.521131, "terminated_loss": 1137695.81, "terminated_num": 1, "terminated_loss_noself": 1137695.81, "terminated_num_noself": 1}, {"org_name": "Cornell University", "lat": 42.438, "lon": -76.4625, "terminated_loss": 9261302.2, "terminated_num": 4, "terminated_loss_noself": 9261302.2, "terminated_num_noself": 4}, {"org_name": "Michigan State University", "lat": 42.653979, "lon": -84.492032, "terminated_loss": 966794.68, "terminated_num": 5, "terminated_loss_noself": 966794.68, "terminated_num_noself": 4}, {"org_name": "Roswell Park Cancer Institute Corp", "lat": 42.873378, "lon": -78.869243, "terminated_loss": 2093741.69, "terminated_num": 1, "terminated_loss_noself": 2093741.69, "terminated_num_noself": 1}, {"org_name": "State University of New York at Buffalo", "lat": 43.003074, "lon": -78.785924, "terminated_loss": 2319192.73, "terminated_num": 8, "terminated_loss_noself": 2319192.73, "terminated_num_noself": 8}, {"org_name": "Marquette University", "lat": 43.038728, "lon": -87.923307, "terminated_loss": 127391.05, "terminated_num": 1, "terminated_loss_noself": 127391.05, "terminated_num_noself": 1}, {"org_name": "Medical College of Wisconsin", "lat": 43.04575, "lon": -88.020374, "terminated_loss": 2223530.89, "terminated_num": 9, "terminated_loss_noself": 2223530.89, "terminated_num_noself": 9}, {"org_name": "University of Wisconsin-Madison", "lat": 43.068519, "lon": -89.400858, "terminated_loss": 4317113.29, "terminated_num": 15, "terminated_loss_noself": 4290599.47, "terminated_num_noself": 13}, {"org_name": "University of Wisconsin Milwaukee", "lat": 43.075704, "lon": -87.877999, "terminated_loss": 2840768.22, "terminated_num": 5, "terminated_loss_noself": 2472221.18, "terminated_num_noself": 4}, {"org_name": "University of Rochester", "lat": 43.131774, "lon": -77.63546, "terminated_loss": 7517536.6845768, "terminated_num": 15, "terminated_loss_noself": 7517536.6845768, "terminated_num_noself": 13}, {"org_name": "Mainehealth", "lat": 43.653164, "lon": -70.275471, "terminated_loss": 5014585.42, "terminated_num": 1, "terminated_loss_noself": 5014585.42, "terminated_num_noself": 1}, {"org_name": "University of Oregon", "lat": 44.045509, "lon": -123.069741, "terminated_loss": 1597374.96, "terminated_num": 8, "terminated_loss_noself": 1597374.96, "terminated_num_noself": 7}, {"org_name": "Iris Media, Inc.", "lat": 44.048722, "lon": -123.088476, "terminated_loss": 102337.86, "terminated_num": 1, "terminated_loss_noself": 102337.86, "terminated_num_noself": 1}, {"org_name": "Healthpartners Institute", "lat": 44.85364, "lon": -93.225576, "terminated_loss": 1463450.41, "terminated_num": 2, "terminated_loss_noself": 1463450.41, "terminated_num_noself": 2}, {"org_name": "University of Minnesota", "lat": 44.975143, "lon": -93.227003, "terminated_loss": 14250755.54, "terminated_num": 15, "terminated_loss_noself": 10869196.02, "terminated_num_noself": 13}, {"org_name": "Oregon Health & Science University", "lat": 45.49882, "lon": -122.685647, "terminated_loss": 2833191.88, "terminated_num": 6, "terminated_loss_noself": 2833191.88, "terminated_num_noself": 6}, {"org_name": "Montana State University - Bozeman", "lat": 45.661963, "lon": -111.059937, "terminated_loss": 435210.0, "terminated_num": 2, "terminated_loss_noself": 435210.0, "terminated_num_noself": 2}, {"org_name": "Washington State University", "lat": 46.728892, "lon": -117.155742, "terminated_loss": 5592975.11, "terminated_num": 5, "terminated_loss_noself": 5592975.11, "terminated_num_noself": 5}, {"org_name": "University of Idaho", "lat": 46.730287, "lon": -116.996847, "terminated_loss": 243447.5, "terminated_num": 1, "terminated_loss_noself": 243447.5, "terminated_num_noself": 1}, {"org_name": "University of Montana", "lat": 46.860203, "lon": -113.983723, "terminated_loss": 178892.17, "terminated_num": 2, "terminated_loss_noself": 178892.17, "terminated_num_noself": 2}, {"org_name": "Institute for Systems Biology", "lat": 47.622538, "lon": -122.337533, "terminated_loss": 643150.0, "terminated_num": 2, "terminated_loss_noself": 643150.0, "terminated_num_noself": 2}, {"org_name": "Fred Hutchinson Cancer Center", "lat": 47.626482, "lon": -122.329606, "terminated_loss": 1888125.51153846, "terminated_num": 6, "terminated_loss_noself": 1888125.51153846, "terminated_num_noself": 6}, {"org_name": "University of Washington", "lat": 47.660307, "lon": -122.315168, "terminated_loss": 10949621.74, "terminated_num": 24, "terminated_loss_noself": 10800285.49, "terminated_num_noself": 20}, {"org_name": "Seattle Children's Hospital", "lat": 47.66243, "lon": -122.282291, "terminated_loss": 1129237.27, "terminated_num": 4, "terminated_loss_noself": 1129237.27, "terminated_num_noself": 4}, {"org_name": "Southcentral Foundation", "lat": 61.182148, "lon": -149.795959, "terminated_loss": 698945.86, "terminated_num": 1, "terminated_loss_noself": 698945.86, "terminated_num_noself": 1}, {"org_name": "University of Alaska Anchorage", "lat": 61.190646, "lon": -149.818129, "terminated_loss": 33538.85, "terminated_num": 1, "terminated_loss_noself": 33538.85, "terminated_num_noself": 1}, {"org_name": "Queen's Medical Center", "lat": 21.307803, "lon": -157.853947, "terminated_loss": 633837.19, "terminated_num": 1, "terminated_loss_noself": 633837.19, "terminated_num_noself": 1}, {"org_name": "Colliga Apps Corp.", "lat": 25.763047, "lon": -80.190448, "terminated_loss": 178325.0, "terminated_num": 1, "terminated_loss_noself": 178325.0, "terminated_num_noself": 1}, {"org_name": "University of South Florida", "lat": 28.074039, "lon": -82.395963, "terminated_loss": 186815.06, "terminated_num": 2, "terminated_loss_noself": 186815.06, "terminated_num_noself": 1}, {"org_name": "University of Texas Health Science Center", "lat": 29.513091, "lon": -98.577742, "terminated_loss": 4513650.92153846, "terminated_num": 8, "terminated_loss_noself": 4513650.92153846, "terminated_num_noself": 8}, {"org_name": "University of Texas Health Science Center Houston", "lat": 29.703025, "lon": -95.403303, "terminated_loss": 1105951.57, "terminated_num": 5, "terminated_loss_noself": 1105951.57, "terminated_num_noself": 5}, {"org_name": "LSU Health Scienes Center", "lat": 29.957378, "lon": -90.082793, "terminated_loss": 420165.13, "terminated_num": 2, "terminated_loss_noself": 420165.13, "terminated_num_noself": 2}, {"org_name": "Dillard University", "lat": 29.996211, "lon": -90.065957, "terminated_loss": 267305.26, "terminated_num": 1, "terminated_loss_noself": 267305.26, "terminated_num_noself": 1}, {"org_name": "Prairie View\u00a0A&M\u00a0University\u00a0", "lat": 30.081335, "lon": -95.992865, "terminated_loss": 29392.01, "terminated_num": 1, "terminated_loss_noself": 29392.01, "terminated_num_noself": 1}, {"org_name": "Mayo Clinic Jacksonville", "lat": 30.264703, "lon": -81.444793, "terminated_loss": 6564.86, "terminated_num": 1, "terminated_loss_noself": 6564.86, "terminated_num_noself": 1}, {"org_name": "University of North Florida", "lat": 30.270668, "lon": -81.510431, "terminated_loss": 124502.12, "terminated_num": 1, "terminated_loss_noself": 124502.12, "terminated_num_noself": 1}, {"org_name": "Texas Engineering Experiment Station", "lat": 30.561542, "lon": -96.253207, "terminated_loss": 646122.0, "terminated_num": 1, "terminated_loss_noself": 646122.0, "terminated_num_noself": 1}, {"org_name": "Texas A&M University", "lat": 30.605876, "lon": -96.368771, "terminated_loss": 1733326.53, "terminated_num": 8, "terminated_loss_noself": 1733326.53, "terminated_num_noself": 7}, {"org_name": "Sam Houston State University", "lat": 30.715211, "lon": -95.549345, "terminated_loss": 60143.62, "terminated_num": 1, "terminated_loss_noself": 60143.62, "terminated_num_noself": 1}, {"org_name": "Baylor University", "lat": 31.555713, "lon": -97.121401, "terminated_loss": 2180559.0, "terminated_num": 1, "terminated_loss_noself": 2180559.0, "terminated_num_noself": 1}, {"org_name": "New Mexico State University Las Cruces", "lat": 32.279041, "lon": -106.755696, "terminated_loss": 530793.08, "terminated_num": 2, "terminated_loss_noself": 530793.08, "terminated_num_noself": 2}, {"org_name": "University of Texas Arlington", "lat": 32.728201, "lon": -97.112604, "terminated_loss": 1260984.22, "terminated_num": 2, "terminated_loss_noself": 1260984.22, "terminated_num_noself": 2}, {"org_name": "Scripps Health", "lat": 32.887742, "lon": -117.223797, "terminated_loss": 202964.0, "terminated_num": 1, "terminated_loss_noself": 202964.0, "terminated_num_noself": 1}, {"org_name": "California State University San Marcos", "lat": 33.13799, "lon": -117.151093, "terminated_loss": 49660.96, "terminated_num": 2, "terminated_loss_noself": 49660.96, "terminated_num_noself": 1}, {"org_name": "Claflin University", "lat": 33.495919, "lon": -80.855463, "terminated_loss": 699563.4, "terminated_num": 1, "terminated_loss_noself": 699563.4, "terminated_num_noself": 1}, {"org_name": "Mayo Clinic Arizona", "lat": 33.589113, "lon": -111.79394, "terminated_loss": 847196.28, "terminated_num": 2, "terminated_loss_noself": 847196.28, "terminated_num_noself": 2}, {"org_name": "California State University Long Beach", "lat": 33.781104, "lon": -118.109903, "terminated_loss": 122592.96, "terminated_num": 1, "terminated_loss_noself": 122592.96, "terminated_num_noself": 1}, {"org_name": "Georgia Institute of Technology", "lat": 33.781897, "lon": -84.404009, "terminated_loss": 312655.39, "terminated_num": 4, "terminated_loss_noself": 312655.39, "terminated_num_noself": 3}, {"org_name": "California State University - Dominguez Hills", "lat": 33.867141, "lon": -118.255341, "terminated_loss": 32192.43, "terminated_num": 1, "terminated_loss_noself": 32192.43, "terminated_num_noself": 1}, {"org_name": "California State University Los Angeles", "lat": 34.062539, "lon": -118.169044, "terminated_loss": 50954.52, "terminated_num": 1, "terminated_loss_noself": 50954.52, "terminated_num_noself": 1}, {"org_name": "California Institute of Technology", "lat": 34.134332, "lon": -118.12652, "terminated_loss": 709275.17, "terminated_num": 2, "terminated_loss_noself": 709275.17, "terminated_num_noself": 2}, {"org_name": "California State University San Bernardino", "lat": 34.176782, "lon": -117.330185, "terminated_loss": 715994.85, "terminated_num": 1, "terminated_loss_noself": 715994.85, "terminated_num_noself": 1}, {"org_name": "Clemson University", "lat": 34.673146, "lon": -82.823962, "terminated_loss": 269784.54, "terminated_num": 3, "terminated_loss_noself": 269784.54, "terminated_num_noself": 2}, {"org_name": "Fayetteville State University", "lat": 35.071547, "lon": -78.894454, "terminated_loss": 94529.28, "terminated_num": 1, "terminated_loss_noself": 94529.28, "terminated_num_noself": 1}, {"org_name": "St. Jude Children's Research Hospital", "lat": 35.155607, "lon": -90.045279, "terminated_loss": 522011.0, "terminated_num": 1, "terminated_loss_noself": 522011.0, "terminated_num_noself": 1}, {"org_name": "University of Oklahoma", "lat": 35.209223, "lon": -97.443781, "terminated_loss": 1150230.0, "terminated_num": 1, "terminated_loss_noself": 1150230.0, "terminated_num_noself": 1}, {"org_name": "California State University Bakersfield", "lat": 35.354257, "lon": -119.107587, "terminated_loss": 162867.81, "terminated_num": 1, "terminated_loss_noself": 162867.81, "terminated_num_noself": 1}, {"org_name": "Oklahoma Medical Research Foundation", "lat": 35.482988, "lon": -97.49781, "terminated_loss": 487581.58, "terminated_num": 2, "terminated_loss_noself": 487581.58, "terminated_num_noself": 2}, {"org_name": "Equiti Foods, LLC", "lat": 35.901309, "lon": -79.061049, "terminated_loss": 55120.0, "terminated_num": 1, "terminated_loss_noself": 55120.0, "terminated_num_noself": 1}, {"org_name": "North Carolina Central University", "lat": 35.97467, "lon": -78.898054, "terminated_loss": 224681.54, "terminated_num": 1, "terminated_loss_noself": 224681.54, "terminated_num_noself": 1}, {"org_name": "University of North Carolina Greensboro", "lat": 36.065048, "lon": -79.808967, "terminated_loss": 106074.32, "terminated_num": 1, "terminated_loss_noself": 106074.32, "terminated_num_noself": 1}, {"org_name": "Laureate Institute for Brain Research", "lat": 36.066243, "lon": -95.919455, "terminated_loss": 1476817.13, "terminated_num": 2, "terminated_loss_noself": 1476817.13, "terminated_num_noself": 2}, {"org_name": "North Carolina A&T State University", "lat": 36.074178, "lon": -79.775965, "terminated_loss": 107518.95, "terminated_num": 2, "terminated_loss_noself": 107518.95, "terminated_num_noself": 2}, {"org_name": "Tennessee State University", "lat": 36.168333, "lon": -86.828524, "terminated_loss": 153224.53, "terminated_num": 1, "terminated_loss_noself": 153224.53, "terminated_num_noself": 1}, {"org_name": "Old Dominion University", "lat": 36.888989, "lon": -76.303478, "terminated_loss": 108577.06, "terminated_num": 2, "terminated_loss_noself": 108577.06, "terminated_num_noself": 2}, {"org_name": "Western Kentucky University", "lat": 36.986798, "lon": -86.455375, "terminated_loss": 274169.0, "terminated_num": 1, "terminated_loss_noself": 274169.0, "terminated_num_noself": 1}, {"org_name": "Hampton University", "lat": 37.025661, "lon": -76.347732, "terminated_loss": 106212.0, "terminated_num": 1, "terminated_loss_noself": 106212.0, "terminated_num_noself": 1}, {"org_name": "Fort Lewis College", "lat": 37.274983, "lon": -107.872039, "terminated_loss": 307317.49, "terminated_num": 1, "terminated_loss_noself": 307317.49, "terminated_num_noself": 1}, {"org_name": "University of California, Merced", "lat": 37.351306, "lon": -120.4324, "terminated_loss": 541955.21, "terminated_num": 2, "terminated_loss_noself": 541955.21, "terminated_num_noself": 1}, {"org_name": "San Francisco Department of Public Health", "lat": 37.778128, "lon": -122.418652, "terminated_loss": 924356.0, "terminated_num": 1, "terminated_loss_noself": 0.0, "terminated_num_noself": 0}, {"org_name": "California State University Sacramento", "lat": 38.553853, "lon": -121.421265, "terminated_loss": 47711.91, "terminated_num": 1, "terminated_loss_noself": 47711.91, "terminated_num_noself": 1}, {"org_name": "Isa Associates, Inc.", "lat": 38.805407, "lon": -77.039842, "terminated_loss": 1250418.19, "terminated_num": 1, "terminated_loss_noself": 1250418.19, "terminated_num_noself": 1}, {"org_name": "American Psychological Association", "lat": 38.89984, "lon": -77.007538, "terminated_loss": 301053.6, "terminated_num": 1, "terminated_loss_noself": 301053.6, "terminated_num_noself": 1}, {"org_name": "Endocrine Society", "lat": 38.904115, "lon": -77.046163, "terminated_loss": 1361923.0, "terminated_num": 1, "terminated_loss_noself": 1361923.0, "terminated_num_noself": 1}, {"org_name": "Georgetown University", "lat": 38.905206, "lon": -77.07547, "terminated_loss": 750618.39, "terminated_num": 2, "terminated_loss_noself": 750618.39, "terminated_num_noself": 2}, {"org_name": "Howard University", "lat": 38.923138, "lon": -77.021576, "terminated_loss": 2345639.96, "terminated_num": 2, "terminated_loss_noself": 2345639.96, "terminated_num_noself": 2}, {"org_name": "Academic Pediatric Association", "lat": 38.937467, "lon": -77.176943, "terminated_loss": 858505.96, "terminated_num": 1, "terminated_loss_noself": 858505.96, "terminated_num_noself": 1}, {"org_name": "University of Missouri-Columbia", "lat": 38.948231, "lon": -92.327335, "terminated_loss": 6302580.97, "terminated_num": 7, "terminated_loss_noself": 6302580.97, "terminated_num_noself": 7}, {"org_name": "American Gastroenterological Association Institute", "lat": 38.989333, "lon": -77.099203, "terminated_loss": 810801.0, "terminated_num": 1, "terminated_loss_noself": 810801.0, "terminated_num_noself": 1}, {"org_name": "Delaware State University", "lat": 39.189379, "lon": -75.541169, "terminated_loss": 7573755.23, "terminated_num": 3, "terminated_loss_noself": 7573755.23, "terminated_num_noself": 3}, {"org_name": "University of Maryland Baltimore County", "lat": 39.252457, "lon": -76.71121, "terminated_loss": 1840427.02, "terminated_num": 4, "terminated_loss_noself": 1840427.02, "terminated_num_noself": 4}, {"org_name": "Rowan University", "lat": 39.707715, "lon": -75.116897, "terminated_loss": 333302.61, "terminated_num": 1, "terminated_loss_noself": 333302.61, "terminated_num_noself": 1}, {"org_name": "University of Delaware", "lat": 39.714507, "lon": -75.738715, "terminated_loss": 224873.354725275, "terminated_num": 3, "terminated_loss_noself": 224873.354725275, "terminated_num_noself": 2}, {"org_name": "Indiana University Indianapolis", "lat": 39.779213, "lon": -86.175288, "terminated_loss": 4999939.24, "terminated_num": 10, "terminated_loss_noself": 4999939.24, "terminated_num_noself": 10}, {"org_name": "Thomas Jefferson University", "lat": 39.948207, "lon": -75.157825, "terminated_loss": 856620.23, "terminated_num": 2, "terminated_loss_noself": 856620.23, "terminated_num_noself": 2}, {"org_name": "Rutgers University", "lat": 40.481906, "lon": -74.457066, "terminated_loss": 444621.0, "terminated_num": 3, "terminated_loss_noself": 444621.0, "terminated_num_noself": 2}, {"org_name": "Colorado State University", "lat": 40.57951, "lon": -105.081267, "terminated_loss": 740945.99, "terminated_num": 4, "terminated_loss_noself": 740945.99, "terminated_num_noself": 4}, {"org_name": "Medgar Evers College", "lat": 40.667136, "lon": -73.951831, "terminated_loss": 60291.25, "terminated_num": 1, "terminated_loss_noself": 60291.25, "terminated_num_noself": 1}, {"org_name": "New Jersey Institute of Technology", "lat": 40.742916, "lon": -74.176244, "terminated_loss": 833817.33, "terminated_num": 2, "terminated_loss_noself": 833817.33, "terminated_num_noself": 2}, {"org_name": "Bellage, Inc.", "lat": 40.74767, "lon": -73.918101, "terminated_loss": 6300.0, "terminated_num": 1, "terminated_loss_noself": 6300.0, "terminated_num_noself": 1}, {"org_name": "Hospital for Special Surgery", "lat": 40.765324, "lon": -73.953947, "terminated_loss": 676204.0, "terminated_num": 1, "terminated_loss_noself": 676204.0, "terminated_num_noself": 1}, {"org_name": "Cold Spring Harbor Laboratory", "lat": 40.86755, "lon": -73.473456, "terminated_loss": 274670.22, "terminated_num": 1, "terminated_loss_noself": 274670.22, "terminated_num_noself": 1}, {"org_name": "Herbert H. Lehman College", "lat": 40.870857, "lon": -73.8866, "terminated_loss": 187999.42, "terminated_num": 2, "terminated_loss_noself": 187999.42, "terminated_num_noself": 2}, {"org_name": "Kent State University", "lat": 41.152425, "lon": -81.337881, "terminated_loss": 419715.0, "terminated_num": 1, "terminated_loss_noself": 419715.0, "terminated_num_noself": 1}, {"org_name": "University of Nebraska Medical Center", "lat": 41.265996, "lon": -96.010026, "terminated_loss": 1378237.56, "terminated_num": 4, "terminated_loss_noself": 1378237.56, "terminated_num_noself": 4}, {"org_name": "University of Notre Dame", "lat": 41.693901, "lon": -86.239284, "terminated_loss": 721843.22, "terminated_num": 3, "terminated_loss_noself": 721843.22, "terminated_num_noself": 3}, {"org_name": "University of Connecticut School of Medicine", "lat": 41.734182, "lon": -72.793791, "terminated_loss": 348584.91, "terminated_num": 2, "terminated_loss_noself": 348584.91, "terminated_num_noself": 2}, {"org_name": "Northwestern University", "lat": 42.050479, "lon": -87.680046, "terminated_loss": 39634870.0291209, "terminated_num": 26, "terminated_loss_noself": 39506572.0491209, "terminated_num_noself": 25}, {"org_name": "Worcester Polytechnic Institute", "lat": 42.274036, "lon": -71.806691, "terminated_loss": 122381.54, "terminated_num": 2, "terminated_loss_noself": 122381.54, "terminated_num_noself": 1}, {"org_name": "University of Massachusetts Boston", "lat": 42.313703, "lon": -71.062976, "terminated_loss": 1480287.0, "terminated_num": 1, "terminated_loss_noself": 1480287.0, "terminated_num_noself": 1}, {"org_name": "Harvard Medical School", "lat": 42.335672, "lon": -71.104237, "terminated_loss": 444205072.09, "terminated_num": 340, "terminated_loss_noself": 444195664.09, "terminated_num_noself": 335}, {"org_name": "Wayne State University", "lat": 42.357466, "lon": -83.065294, "terminated_loss": 1182833.32, "terminated_num": 6, "terminated_loss_noself": 1182833.32, "terminated_num_noself": 5}, {"org_name": "McLean Hospital", "lat": 42.393619, "lon": -71.191142, "terminated_loss": 1846163.0, "terminated_num": 3, "terminated_loss_noself": 1846163.0, "terminated_num_noself": 3}, {"org_name": "Rensselaer Polytechnic Institute", "lat": 42.732865, "lon": -73.683493, "terminated_loss": 993814.0, "terminated_num": 1, "terminated_loss_noself": 993814.0, "terminated_num_noself": 1}, {"org_name": "Syracuse University", "lat": 43.041575, "lon": -76.133784, "terminated_loss": 13429.98, "terminated_num": 1, "terminated_loss_noself": 13429.98, "terminated_num_noself": 1}, {"org_name": "Rochester Institute of Technology", "lat": 43.092171, "lon": -77.674767, "terminated_loss": 76536.09, "terminated_num": 1, "terminated_loss_noself": 76536.09, "terminated_num_noself": 1}, {"org_name": "Central Michigan University", "lat": 43.601402, "lon": -84.787107, "terminated_loss": 308460.0, "terminated_num": 1, "terminated_loss_noself": 308460.0, "terminated_num_noself": 1}, {"org_name": "Dartmouth College", "lat": 43.711386, "lon": -72.270611, "terminated_loss": 500396.83, "terminated_num": 3, "terminated_loss_noself": 500396.83, "terminated_num_noself": 3}, {"org_name": "Jackson Laboratory", "lat": 44.365361, "lon": -68.196303, "terminated_loss": 873686.63, "terminated_num": 3, "terminated_loss_noself": 873686.63, "terminated_num_noself": 3}, {"org_name": "Clarkson University", "lat": 44.65482, "lon": -74.95554, "terminated_loss": 69073.23, "terminated_num": 1, "terminated_loss_noself": 69073.23, "terminated_num_noself": 1}, {"org_name": "Missouri Breaks Research, Inc.", "lat": 45.4277, "lon": -101.074481, "terminated_loss": 1019047.0, "terminated_num": 1, "terminated_loss_noself": 1019047.0, "terminated_num_noself": 1}, {"org_name": "Portland State University", "lat": 45.51201, "lon": -122.679476, "terminated_loss": 515262.22, "terminated_num": 1, "terminated_loss_noself": 515262.22, "terminated_num_noself": 1}, {"org_name": "Allen Institute", "lat": 47.650084, "lon": -122.351604, "terminated_loss": 61010.3884788868, "terminated_num": 3, "terminated_loss_noself": 61010.3884788868, "terminated_num_noself": 3}, {"org_name": "University of North Dakota", "lat": 47.919868, "lon": -97.072819, "terminated_loss": 171420.25, "terminated_num": 2, "terminated_loss_noself": 171420.25, "terminated_num_noself": 2}, {"org_name": "University of Alaska Fairbanks", "lat": 64.857437, "lon": -147.800301, "terminated_loss": 296755.61, "terminated_num": 1, "terminated_loss_noself": 296755.61, "terminated_num_noself": 1}, {"org_name": "University of Colorado - Colorado Springs", "lat": 38.891282, "lon": -104.800059, "terminated_loss": 2522884.59, "terminated_num": 6, "terminated_loss_noself": 2522884.59, "terminated_num_noself": 5}, {"org_name": "University of Kansas Medical Center", "lat": 39.026584, "lon": -94.636347, "terminated_loss": 374022.0, "terminated_num": 1, "terminated_loss_noself": 374022.0, "terminated_num_noself": 1}, {"org_name": "Moffitt Cancer Center", "lat": 28.062583, "lon": -82.419596, "terminated_loss": 29434.22, "terminated_num": 1, "terminated_loss_noself": 29434.22, "terminated_num_noself": 1}, {"org_name": "Rice University", "lat": 29.717236, "lon": -95.402761, "terminated_loss": 345087.68, "terminated_num": 2, "terminated_loss_noself": 345087.68, "terminated_num_noself": 2}, {"org_name": "Xavier University of Louisiana", "lat": 29.964291, "lon": -90.107468, "terminated_loss": 420461.63, "terminated_num": 1, "terminated_loss_noself": 420461.63, "terminated_num_noself": 1}, {"org_name": "LSU Pennington Biomedical Research Center", "lat": 30.403353, "lon": -91.122687, "terminated_loss": 74485.48, "terminated_num": 2, "terminated_loss_noself": 74485.48, "terminated_num_noself": 1}, {"org_name": "Texas Tech University Health Sciences Center El Paso", "lat": 31.769999, "lon": -106.431625, "terminated_loss": 382069.11, "terminated_num": 1, "terminated_loss_noself": 382069.11, "terminated_num_noself": 1}, {"org_name": "Alabama State University", "lat": 32.365014, "lon": -86.295702, "terminated_loss": 337440.87, "terminated_num": 1, "terminated_loss_noself": 337440.87, "terminated_num_noself": 1}, {"org_name": "University of North Texas", "lat": 33.21077, "lon": -97.147769, "terminated_loss": 302172.03, "terminated_num": 1, "terminated_loss_noself": 302172.03, "terminated_num_noself": 1}, {"org_name": "Augusta University", "lat": 33.470962, "lon": -81.991405, "terminated_loss": 3658559.86, "terminated_num": 3, "terminated_loss_noself": 3658559.86, "terminated_num_noself": 3}, {"org_name": "University of California Riverside", "lat": 33.972585, "lon": -117.350361, "terminated_loss": 778367.53, "terminated_num": 2, "terminated_loss_noself": 778367.53, "terminated_num_noself": 2}, {"org_name": "North Carolina State University Raleigh", "lat": 35.784675, "lon": -78.677233, "terminated_loss": 484783.0, "terminated_num": 1, "terminated_loss_noself": 484783.0, "terminated_num_noself": 1}, {"org_name": "University of Arkansas at Fayetteville", "lat": 36.069922, "lon": -94.176965, "terminated_loss": 299575.86, "terminated_num": 1, "terminated_loss_noself": 299575.86, "terminated_num_noself": 1}, {"org_name": "East Tennessee State University", "lat": 36.330892, "lon": -82.365584, "terminated_loss": 568254.09, "terminated_num": 1, "terminated_loss_noself": 568254.09, "terminated_num_noself": 1}, {"org_name": "Gladstone Institutes", "lat": 37.767618, "lon": -122.394315, "terminated_loss": 49189.08, "terminated_num": 1, "terminated_loss_noself": 49189.08, "terminated_num_noself": 1}, {"org_name": "Smith-Kettlewell Eye Research Institute", "lat": 37.791185, "lon": -122.43391, "terminated_loss": 38692.0, "terminated_num": 1, "terminated_loss_noself": 38692.0, "terminated_num_noself": 1}, {"org_name": "University of the District of Columbia", "lat": 38.944441, "lon": -77.064327, "terminated_loss": 492700.72, "terminated_num": 1, "terminated_loss_noself": 492700.72, "terminated_num_noself": 1}, {"org_name": "Monell Chemical Senses Center", "lat": 39.955743, "lon": -75.193059, "terminated_loss": 265511.31, "terminated_num": 2, "terminated_loss_noself": 265511.31, "terminated_num_noself": 2}, {"org_name": "Magee-Womens Research Institute", "lat": 40.437078, "lon": -79.96154, "terminated_loss": 4051053.63, "terminated_num": 2, "terminated_loss_noself": 4051053.63, "terminated_num_noself": 2}, {"org_name": "Carnegie-Mellon University", "lat": 40.442959, "lon": -79.941084, "terminated_loss": 291119.0, "terminated_num": 1, "terminated_loss_noself": 291119.0, "terminated_num_noself": 1}, {"org_name": "SUNY Downstate Medical Center", "lat": 40.65537, "lon": -73.945077, "terminated_loss": 557556.11, "terminated_num": 1, "terminated_loss_noself": 557556.11, "terminated_num_noself": 1}, {"org_name": "Father Flanagan's Boys' Home", "lat": 41.253446, "lon": -96.133857, "terminated_loss": 136610.982197802, "terminated_num": 2, "terminated_loss_noself": 136610.982197802, "terminated_num_noself": 2}, {"org_name": "Creighton University", "lat": 41.264296, "lon": -95.948089, "terminated_loss": 232290.09, "terminated_num": 2, "terminated_loss_noself": 232290.09, "terminated_num_noself": 2}, {"org_name": "University of Toledo Health Science Campus", "lat": 41.619554, "lon": -83.620727, "terminated_loss": 416111.25, "terminated_num": 1, "terminated_loss_noself": 416111.25, "terminated_num_noself": 1}, {"org_name": "Hebrew Rehabilitation Center for Aged", "lat": 42.296681, "lon": -71.130734, "terminated_loss": 4990952.92, "terminated_num": 1, "terminated_loss_noself": 4990952.92, "terminated_num_noself": 1}, {"org_name": "Tufts University Medford", "lat": 42.40117, "lon": -71.125362, "terminated_loss": 14055.94, "terminated_num": 3, "terminated_loss_noself": 14055.94, "terminated_num_noself": 1}, {"org_name": "University of South Dakota", "lat": 42.78263, "lon": -96.925433, "terminated_loss": 76578.0699999999, "terminated_num": 1, "terminated_loss_noself": 76578.0699999999, "terminated_num_noself": 1}, {"org_name": "SUNY Upstate Medical University", "lat": 43.042595, "lon": -76.14055, "terminated_loss": 6207.15, "terminated_num": 1, "terminated_loss_noself": 6207.15, "terminated_num_noself": 1}, {"org_name": "St. Catherine University", "lat": 44.924882, "lon": -93.183134, "terminated_loss": 641152.07, "terminated_num": 1, "terminated_loss_noself": 641152.07, "terminated_num_noself": 1}, {"org_name": "Hennepin Healthcare Research Institute", "lat": 44.972097, "lon": -93.262404, "terminated_loss": 259243.69, "terminated_num": 1, "terminated_loss_noself": 259243.69, "terminated_num_noself": 1}, {"org_name": "Hopa Mountain", "lat": 45.678023, "lon": -111.033007, "terminated_loss": 126731.06, "terminated_num": 1, "terminated_loss_noself": 126731.06, "terminated_num_noself": 1}, {"org_name": "Urban Health Partnerships", "lat": 25.758156, "lon": -80.199322, "terminated_loss": 165898.69, "terminated_num": 1, "terminated_loss_noself": 165898.69, "terminated_num_noself": 1}, {"org_name": "Health Choice Network, Inc.", "lat": 25.784838, "lon": -80.341865, "terminated_loss": 8746.1399999999, "terminated_num": 1, "terminated_loss_noself": 8746.1399999999, "terminated_num_noself": 1}, {"org_name": "Asian American Health Coalition", "lat": 29.715091, "lon": -95.553787, "terminated_loss": 980142.35, "terminated_num": 1, "terminated_loss_noself": 980142.35, "terminated_num_noself": 1}, {"org_name": "Healthy Tarrant County Collaboration", "lat": 32.765454, "lon": -97.252866, "terminated_loss": 495992.89, "terminated_num": 1, "terminated_loss_noself": 495992.89, "terminated_num_noself": 1}, {"org_name": "University of Alabama", "lat": 33.215665, "lon": -87.53919, "terminated_loss": 231050.85, "terminated_num": 1, "terminated_loss_noself": 231050.85, "terminated_num_noself": 1}, {"org_name": "Delta Health Alliance, Inc.", "lat": 33.40757, "lon": -90.911217, "terminated_loss": 104662.42, "terminated_num": 1, "terminated_loss_noself": 104662.42, "terminated_num_noself": 1}, {"org_name": "Loma Linda University", "lat": 34.051744, "lon": -117.261784, "terminated_loss": 245106.0, "terminated_num": 1, "terminated_loss_noself": 245106.0, "terminated_num_noself": 1}, {"org_name": "Housing Authority of the City of Los Angeles", "lat": 34.060406, "lon": -118.281668, "terminated_loss": 539864.46, "terminated_num": 1, "terminated_loss_noself": 539864.46, "terminated_num_noself": 1}, {"org_name": "Arkansas Cancer Coalition", "lat": 34.759836, "lon": -92.340415, "terminated_loss": 551280.17, "terminated_num": 1, "terminated_loss_noself": 551280.17, "terminated_num_noself": 1}, {"org_name": "North Carolina Department of\u00a0Health and\u00a0Human Services", "lat": 35.670641, "lon": -78.663729, "terminated_loss": 497053.92, "terminated_num": 1, "terminated_loss_noself": 497053.92, "terminated_num_noself": 1}, {"org_name": "Tech Museum of Innovation", "lat": 37.331476, "lon": -121.890183, "terminated_loss": 56689.18, "terminated_num": 1, "terminated_loss_noself": 56689.18, "terminated_num_noself": 1}, {"org_name": "Southern Illinois University at Edwardsville", "lat": 38.811295, "lon": -89.956641, "terminated_loss": 173649.85, "terminated_num": 1, "terminated_loss_noself": 173649.85, "terminated_num_noself": 1}, {"org_name": "The Academy of Natural Sciences of Drexel University", "lat": 39.957946, "lon": -75.171447, "terminated_loss": 181668.18, "terminated_num": 1, "terminated_loss_noself": 181668.18, "terminated_num_noself": 1}, {"org_name": "Asian Community Health Coalition", "lat": 39.960695, "lon": -75.157059, "terminated_loss": 357187.5, "terminated_num": 1, "terminated_loss_noself": 357187.5, "terminated_num_noself": 1}, {"org_name": "Kean University", "lat": 40.679579, "lon": -74.231879, "terminated_loss": 30020.13, "terminated_num": 1, "terminated_loss_noself": 30020.13, "terminated_num_noself": 1}, {"org_name": "New York Hall of Science", "lat": 40.752572, "lon": -73.854759, "terminated_loss": 277640.62, "terminated_num": 1, "terminated_loss_noself": 277640.62, "terminated_num_noself": 1}, {"org_name": "Bronxworks, Inc.", "lat": 40.851, "lon": -73.9081, "terminated_loss": 270687.06, "terminated_num": 1, "terminated_loss_noself": 270687.06, "terminated_num_noself": 1}, {"org_name": "Feonix - Mobility Rising", "lat": 40.859135, "lon": -96.725607, "terminated_loss": 156758.4, "terminated_num": 1, "terminated_loss_noself": 156758.4, "terminated_num_noself": 1}, {"org_name": "Gordon Research Conferences", "lat": 41.480003, "lon": -71.569648, "terminated_loss": 3100.0, "terminated_num": 2, "terminated_loss_noself": 3100.0, "terminated_num_noself": 1}, {"org_name": "The Baker Center", "lat": 42.330928, "lon": -71.109909, "terminated_loss": 410432.71, "terminated_num": 1, "terminated_loss_noself": 410432.71, "terminated_num_noself": 1}, {"org_name": "Face Addiction Now", "lat": 42.553717, "lon": -82.928158, "terminated_loss": 24143.5, "terminated_num": 1, "terminated_loss_noself": 24143.5, "terminated_num_noself": 1}, {"org_name": "Access Health Inc.", "lat": 43.230962, "lon": -86.243109, "terminated_loss": 81701.71, "terminated_num": 1, "terminated_loss_noself": 81701.71, "terminated_num_noself": 1}, {"org_name": "University of Texas Dallas", "lat": 32.991725, "lon": -96.743697, "terminated_loss": 78559.36, "terminated_num": 1, "terminated_loss_noself": 78559.36, "terminated_num_noself": 1}, {"org_name": "East Carolina University", "lat": 35.608358, "lon": -77.364797, "terminated_loss": 81429.46, "terminated_num": 1, "terminated_loss_noself": 81429.46, "terminated_num_noself": 1}, {"org_name": "American University", "lat": 38.936949, "lon": -77.089471, "terminated_loss": 692703.97, "terminated_num": 1, "terminated_loss_noself": 692703.97, "terminated_num_noself": 1}, {"org_name": "Mount Desert Island Biological Lab", "lat": 44.430664, "lon": -68.28841, "terminated_loss": 112293.86, "terminated_num": 1, "terminated_loss_noself": 112293.86, "terminated_num_noself": 1}]}